event_id,title,closed,is_active,source_count,sources,year,lon,lat,obs_date,magnitude_value,magnitude_unit
EONET_273,"Dandaragan, Australia Fires",2016-02-07 00:00:00+00:00,False,0,,2016,,,2016-01-27 00:00:00+00:00,,
EONET_333,"Bushfires, NW Tasmania",2016-02-15 00:00:00+00:00,False,1,EO,2016,,,2016-01-14 00:00:00+00:00,,
EONET_262,"Harvey and Waroona Brushfires, Australia",2016-01-15 00:00:00+00:00,False,1,EO,2016,,,2016-01-06 00:00:00+00:00,,
EONET_349,"Thailand Fires, March 2016",2016-03-25 00:00:00+00:00,False,1,EO,2016,,,2016-02-27 00:00:00+00:00,,
EONET_343,"Grand Bature Fire, Mississippi",2016-02-24 00:00:00+00:00,False,1,InciWeb,2016,-88.44,30.388055555556,2016-02-11 16:30:00+00:00,,
EONET_335,"Amigo Wash Fire, Arizona",2016-03-02 00:00:00+00:00,False,1,InciWeb,2016,-111.32388888889,31.608333333333,2016-02-08 13:00:00+00:00,,
EONET_334,"Powerline Fire, Texas",2016-02-16 00:00:00+00:00,False,1,InciWeb,2016,-103.18333333333,29.3,2016-02-01 16:45:00+00:00,,
EONET_355,"Anderson Creek Wildfire, Kansas",2016-04-01 00:00:00+00:00,False,1,EO,2016,,,2016-03-23 00:00:00+00:00,,
EONET_352,"Baker Canyon Fire, Arizona",2016-04-06 00:00:00+00:00,False,1,InciWeb,2016,-109.08027777778,31.404444444444,2016-03-21 05:00:00+00:00,,
EONET_347,"Guadalupe Pass Fire, Arizona",2016-03-22 00:00:00+00:00,False,1,InciWeb,2016,-108.97638888889,31.391944444444,2016-03-02 05:30:00+00:00,,
EONET_382,"Silver Mine Fire, North Carolina",2016-05-05 00:00:00+00:00,False,1,InciWeb,2016,-82.808055555556,35.890277777778,2016-04-21 15:00:00+00:00,,
EONET_381,"Clemmons Road Fire, North Carolina",2016-04-27 00:00:00+00:00,False,1,InciWeb,2016,-78.187222222222,33.9975,2016-04-19 13:45:00+00:00,,
EONET_388,"Carter Road Fire, British Columbia, Canada",2016-05-18 00:00:00+00:00,False,1,BCWILDFIRE,2016,-121.9992833,56.10305,2016-04-19 00:00:00+00:00,,
EONET_395,"Halfway River Fire, British Columbia, Canada",2016-06-09 00:00:00+00:00,False,1,BCWILDFIRE,2016,-121.6324667,56.257,2016-04-19 00:00:00+00:00,,
EONET_378,"Whipping Creek Fire, North Carolina",2016-05-06 00:00:00+00:00,False,1,InciWeb,2016,-75.907777777778,35.639166666667,2016-04-18 14:00:00+00:00,,
EONET_380,"Railroad Grade 2016 Fire, Tennessee",2016-04-26 00:00:00+00:00,False,1,InciWeb,2016,-82.109722222222,36.216666666667,2016-04-18 01:45:00+00:00,,
EONET_389,"Siphon Creek Fire, British Columbia, Canada",2016-06-13 00:00:00+00:00,False,1,BCWILDFIRE,2016,-120.43345,56.52315,2016-04-18 00:00:00+00:00,,
EONET_396,"Beatton Airport Road Fire, British Columbia, Canada",2016-06-09 00:00:00+00:00,False,1,BCWILDFIRE,2016,-121.1950836,56.5937004,2016-04-18 00:00:00+00:00,,
EONET_376,"Rocky Mount Fire, Virgina",2016-05-04 00:00:00+00:00,False,1,InciWeb,2016,,,2016-04-17 00:00:00+00:00,,
EONET_366,"Long Pine Key Wildfire, Florida",2016-04-29 00:00:00+00:00,False,1,InciWeb,2016,-80.662222222222,25.398611111111,2016-04-10 12:00:00+00:00,,
EONET_363,"Topock Fire, Arizona",2016-04-12 00:00:00+00:00,False,1,InciWeb,2016,-114.52416666667,34.760555555556,2016-04-06 05:00:00+00:00,,
EONET_362,"Halls Top Fire, Tennessee",2016-04-29 00:00:00+00:00,False,1,InciWeb,2016,-83.1675,35.874166666667,2016-04-04 17:00:00+00:00,,
EONET_370,"Fires in Darien Province, Panama, April 2016",2016-04-29 00:00:00+00:00,False,1,IDC,2016,,,2016-04-03 00:00:00+00:00,,
EONET_385,"Nepal WIldfires, April 2016",2016-04-30 00:00:00+00:00,False,1,EO,2016,,,2016-04-01 00:00:00+00:00,,
EONET_419,"Mule Ridge Fire, Arizona",2016-06-06 00:00:00+00:00,False,1,InciWeb,2016,-111.21833333333,31.431388888889,2016-05-31 00:00:00+00:00,,
EONET_426,"Bert Wildfire, Arizona",2016-07-08 00:00:00+00:00,False,1,InciWeb,2016,-111.93555555556,35.551944444444,2016-05-28 16:00:00+00:00,,
EONET_406,"North Fire, New Mexico",2016-07-21 00:00:00+00:00,False,1,InciWeb,2016,-107.42527777778,33.787777777778,2016-05-21 16:45:00+00:00,,
EONET_417,"Spur Fire, New Mexico",2016-06-18 00:00:00+00:00,False,1,InciWeb,2016,-108.79222222222,33.870277777778,2016-05-21 15:00:00+00:00,,
EONET_424,"Jack Fire, Arizona",2016-06-30 00:00:00+00:00,False,1,InciWeb,2016,-111.4,34.76,2016-05-21 00:00:00+00:00,,
EONET_404,"Foss Lake Fire, Minnesota",2016-06-09 00:00:00+00:00,False,1,InciWeb,2016,-92.083055555556,47.895277777778,2016-05-19 23:00:00+00:00,,
EONET_409,"Pivot Rock Fire, Arizona",2016-06-04 00:00:00+00:00,False,1,InciWeb,2016,-111.4,34.49,2016-05-18 13:00:00+00:00,,
EONET_405,"Cowboy Fire, Arizona",2016-06-01 00:00:00+00:00,False,1,InciWeb,2016,-111.68361111111,35.046388888889,2016-05-17 00:00:00+00:00,,
EONET_407,"Juniper Fire, Arizona",2016-07-08 00:00:00+00:00,False,1,InciWeb,2016,-110.92361111111,33.923055555556,2016-05-17 00:00:00+00:00,,
EONET_403,"La Sierra Fire, Arizona",2016-06-01 00:00:00+00:00,False,1,InciWeb,2016,-111.11388888889,31.329444444444,2016-05-16 15:30:00+00:00,,
EONET_408,"Mormon Fire, Arizona",2016-06-08 00:00:00+00:00,False,1,InciWeb,2016,-111.53583333333,34.947222222222,2016-05-15 01:15:00+00:00,,
EONET_398,"College Peak Fire, Arizona",2016-05-25 00:00:00+00:00,False,1,InciWeb,2016,-109.42361111111,31.381666666667,2016-05-10 11:41:00+00:00,,
EONET_393,"Coyote Fire, Texas",2016-06-02 00:00:00+00:00,False,1,InciWeb,2016,-104.90333333333,31.979444444444,2016-05-07 13:30:00+00:00,,
EONET_392,"Skibo Fire, Minnesota",2016-05-18 00:00:00+00:00,False,1,InciWeb,2016,-92.096666666667,47.515,2016-05-06 14:30:00+00:00,,
EONET_394,"Mckenna Fire, New Mexico",2016-06-28 00:00:00+00:00,False,1,InciWeb,2016,-108.42555555556,33.248611111111,2016-05-06 13:00:00+00:00,,
EONET_391,"Cumero Fire, Arizona",2016-05-22 00:00:00+00:00,False,1,InciWeb,2016,-111.45,31.472222222222,2016-05-06 09:30:00+00:00,,
EONET_387,"Fort McMurray Fire, Alberta, Canada",2016-06-10 00:00:00+00:00,False,2,EO|IDC,2016,,,2016-05-02 00:00:00+00:00,,
EONET_465,"Pine Fire, California",2016-07-19 00:00:00+00:00,False,1,InciWeb,2016,-119.23027777778,34.630833333333,2016-06-30 08:45:00+00:00,,
EONET_485,"Fuller Fire, ARIZONA",2016-08-20 00:00:00+00:00,False,1,InciWeb,2016,-112.01805555556,36.2525,2016-06-29 17:00:00+00:00,,
EONET_2700,"Fuller Fire, ARIZONA",2017-01-12 00:00:00+00:00,False,1,InciWeb,2016,-112.01805555556,36.2525,2016-06-29 17:00:00+00:00,,
EONET_2440,"Blair Fire, COLORADO",2016-08-22 00:00:00+00:00,False,1,InciWeb,2016,-108.31666666667,40.116666666667,2016-06-29 15:30:00+00:00,,
EONET_462,"Trailhead Fire, California",2016-07-18 00:00:00+00:00,False,1,InciWeb,2016,-120.85361111111,38.969166666667,2016-06-28 13:45:00+00:00,,
EONET_460,"Bug Creek Fire, Arizona",2016-07-05 00:00:00+00:00,False,1,InciWeb,2016,-112.12388888889,34.294722222222,2016-06-28 10:45:00+00:00,,
EONET_463,"Horseshoe Fire, Nevada",2016-07-05 00:00:00+00:00,False,1,InciWeb,2016,-117.53416666667,39.788333333333,2016-06-28 10:00:00+00:00,,
EONET_478,"Scott Fire, ARIZONA",2016-07-18 00:00:00+00:00,False,1,InciWeb,2016,-111.90305555556,35.933888888889,2016-06-28 00:00:00+00:00,,
EONET_454,"Kara Creek Fire, Wyoming",2016-06-29 00:00:00+00:00,False,1,InciWeb,2016,-104.71666666667,44.383333333333,2016-06-24 18:15:00+00:00,,
EONET_461,"Crow Peak Fire, South Dakota",2016-07-07 00:00:00+00:00,False,1,InciWeb,2016,-103.97333333333,44.477222222222,2016-06-24 18:15:00+00:00,,
EONET_466,"Observation Fire, Montana",2016-07-18 00:00:00+00:00,False,1,InciWeb,2016,-114.27083333333,46.116111111111,2016-06-24 12:00:00+00:00,,
EONET_451,"Erskine Fire, California",2016-07-06 00:00:00+00:00,False,2,EO|InciWeb,2016,-118.4525,35.616944444444,2016-06-23 16:00:00+00:00,,
EONET_458,"Burro Fire, Arizona",2016-07-05 00:00:00+00:00,False,1,InciWeb,2016,-109.15833333333,33.163611111111,2016-06-21 17:30:00+00:00,,
EONET_459,"Maple Peak Fire, Arizona",2016-07-05 00:00:00+00:00,False,1,InciWeb,2016,-109.08861111111,33.342777777778,2016-06-21 10:15:00+00:00,,
EONET_453,"Douglas Fire, Wyoming",2016-06-28 00:00:00+00:00,False,1,InciWeb,2016,-104.48333333333,44.25,2016-06-21 00:00:00+00:00,,
EONET_444,"Reservoir Fire, California",2016-07-08 00:00:00+00:00,False,1,InciWeb,2016,-117.86916666667,34.1825,2016-06-20 11:00:00+00:00,,
EONET_446,"San Gabriel Complex Fire, California",2016-07-08 00:00:00+00:00,False,1,InciWeb,2016,-117.89972222222,34.168333333333,2016-06-20 00:00:00+00:00,,
EONET_445,"Beaver Creek Fire, Colorado",2016-09-28 00:00:00+00:00,False,1,InciWeb,2016,-106.62472222222,40.953333333333,2016-06-19 00:00:00+00:00,,
EONET_448,"Evrychou, Cyprus Wildfire",2016-06-23 00:00:00+00:00,False,1,CEMS,2016,,,2016-06-19 00:00:00+00:00,,
EONET_443,"Wall Fire, Montana",2016-06-29 00:00:00+00:00,False,1,InciWeb,2016,-106.62388888889,45.248055555556,2016-06-18 12:45:00+00:00,,
EONET_441,"Brown Fire, Arizona",2016-07-07 00:00:00+00:00,False,1,InciWeb,2016,-111.56361111111,31.777777777778,2016-06-17 16:30:00+00:00,,
EONET_440,"Quemado Fire, Arizona",2016-06-21 00:00:00+00:00,False,1,InciWeb,2016,-109.48555555556,34.222222222222,2016-06-16 13:32:00+00:00,,
EONET_438,"Cedar Fire, Arizona",2016-07-08 00:00:00+00:00,False,1,InciWeb,2016,-110.18388888889,34.055277777778,2016-06-15 23:45:00+00:00,,
EONET_436,"Sherpa Fire, California",2016-07-08 00:00:00+00:00,False,1,InciWeb,2016,-120.09388888889,34.887777777778,2016-06-15 15:15:00+00:00,,
EONET_464,"Kelso Fire, Colorado",2016-07-08 00:00:00+00:00,False,1,InciWeb,2016,-108.50638888889,38.563055555556,2016-06-14 16:00:00+00:00,,
EONET_439,"Dog Head Fire, New Mexico",2016-07-08 00:00:00+00:00,False,1,InciWeb,2016,-106.37472222222,34.811111111111,2016-06-14 11:00:00+00:00,,
EONET_452,"Saddle Fire, Utah",2016-07-25 00:00:00+00:00,False,1,InciWeb,2016,-113.55277777778,37.361944444444,2016-06-13 11:00:00+00:00,,
EONET_442,"Wildcat Fire, Arizona",2016-07-12 00:00:00+00:00,False,1,InciWeb,2016,-111.98666666667,36.366388888889,2016-06-13 10:30:00+00:00,,
EONET_433,"North Moore Fire, Utah",2016-06-14 00:00:00+00:00,False,1,InciWeb,2016,-112.35805555556,39.785833333333,2016-06-09 17:00:00+00:00,,
EONET_431,"Tenderfoot Fire, Arizona",2016-06-19 00:00:00+00:00,False,1,InciWeb,2016,-112.74527777778,34.211111111111,2016-06-08 15:15:00+00:00,,
EONET_432,"Akawana Fire, Oregon",2016-06-20 00:00:00+00:00,False,1,InciWeb,2016,-121.48111111111,44.488333333333,2016-06-07 16:15:00+00:00,,
EONET_430,"Pony Fire, California",2016-07-08 00:00:00+00:00,False,1,InciWeb,2016,-123.55666666667,41.623333333333,2016-06-07 00:00:00+00:00,,
EONET_429,"Longview Fire, Arizona",2016-06-10 00:00:00+00:00,False,1,InciWeb,2016,-110.56444444444,31.615277777778,2016-06-06 00:00:00+00:00,,
EONET_428,"Owyhee Canyon Fire, Oregon",2016-06-10 00:00:00+00:00,False,1,InciWeb,2016,-117.36361111111,42.468611111111,2016-06-05 18:15:00+00:00,,
EONET_437,"Turkey Fire, New Mexico",2016-06-30 00:00:00+00:00,False,1,InciWeb,2016,-108.32583333333,33.149166666667,2016-06-05 00:00:00+00:00,,
EONET_425,"Coleman Fire, California",2016-06-13 00:00:00+00:00,False,1,InciWeb,2016,-121.28944444444,36.1125,2016-06-04 14:30:00+00:00,,
EONET_420,"Chimney Fire, California",2016-06-08 00:00:00+00:00,False,1,InciWeb,2016,-118.04083333333,35.840833333333,2016-06-01 15:30:00+00:00,,
EONET_2480,"Copper King Fire, MONTANA",2016-09-16 00:00:00+00:00,False,1,InciWeb,2016,-115.18472222222,47.600277777778,2016-07-31 16:00:00+00:00,,
EONET_2475,"Rail Fire, OREGON",2016-10-03 00:00:00+00:00,False,1,InciWeb,2016,-118.47361111111,44.405,2016-07-31 14:30:00+00:00,,
EONET_2471,"Roaring Lion Fire, MONTANA",2016-10-01 00:00:00+00:00,False,1,InciWeb,2016,-114.26027777778,46.193333333333,2016-07-31 14:15:00+00:00,,
EONET_2478,"North Tullock Fire, MONTANA",2016-08-08 00:00:00+00:00,False,1,InciWeb,2016,-107.40166666667,45.881388888889,2016-07-31 00:00:00+00:00,,
EONET_2474,"Range 12 Fire, WASHINGTON",2016-08-15 00:00:00+00:00,False,1,InciWeb,2016,-120.20305555556,46.599166666667,2016-07-30 19:15:00+00:00,,
EONET_2472,"Poodle Fire, NEVADA",2016-08-15 00:00:00+00:00,False,1,InciWeb,2016,-119.64361111111,40.801388888889,2016-07-30 12:30:00+00:00,,
EONET_2503,"Goose Fire, California",2016-08-10 00:00:00+00:00,False,1,CALFIRE,2016,-119.50507,37.01591,2016-07-30 00:00:00+00:00,,
EONET_2469,"Virginia Mountain Complex Fire, NEVADA",2016-08-05 00:00:00+00:00,False,1,InciWeb,2016,-119.72416666667,39.9475,2016-07-29 21:00:00+00:00,,
EONET_2465,"Rock Fire, NEVADA",2016-08-11 00:00:00+00:00,False,1,InciWeb,2016,-119.90166666667,39.865,2016-07-28 20:30:00+00:00,,
EONET_2473,"Box Canyon Fire, UTAH",2016-09-13 00:00:00+00:00,False,1,InciWeb,2016,-111.07361111111,40.714722222222,2016-07-28 17:15:00+00:00,,
EONET_2468,"Tokewanna Fire, WYOMING",2016-08-10 00:00:00+00:00,False,1,InciWeb,2016,-110.59388888889,41.045555555556,2016-07-28 15:00:00+00:00,,
EONET_2487,"Bybee Creek Fire, OREGON",2016-08-13 00:00:00+00:00,False,1,InciWeb,2016,-122.21222222222,42.923888888889,2016-07-28 13:30:00+00:00,,
EONET_2521,"Eden Fire, ARIZONA",2016-08-29 00:00:00+00:00,False,1,InciWeb,2016,-111.27972222222,34.629444444444,2016-07-27 00:00:00+00:00,,
EONET_2460,"Freeman Fire, SOUTH DAKOTA",2016-07-29 00:00:00+00:00,False,1,InciWeb,2016,-102.94694444444,43.501666666667,2016-07-26 18:30:00+00:00,,
EONET_2550,"Roaring Fire, IDAHO",2016-10-05 00:00:00+00:00,False,1,InciWeb,2016,-114.56666666667,45.233333333333,2016-07-26 00:00:00+00:00,,
EONET_2547,"Berry Fire, WYOMING",2016-10-12 00:00:00+00:00,False,1,InciWeb,2016,-110.78583333333,44.020555555556,2016-07-25 00:00:00+00:00,,
EONET_2459,"Westhall 2 Fire, NEW MEXICO",2016-08-06 00:00:00+00:00,False,1,InciWeb,2016,-105.08972222222,33.554444444444,2016-07-24 07:58:00+00:00,,
EONET_2458,"Lower Ebbs Fire, UTAH",2016-08-16 00:00:00+00:00,False,1,InciWeb,2016,-112.18083333333,39.175277777778,2016-07-23 14:30:00+00:00,,
EONET_2523,"Porcupine Fire, UTAH",2016-08-24 00:00:00+00:00,False,1,InciWeb,2016,-111.57805555556,39.049722222222,2016-07-23 00:00:00+00:00,,
EONET_2450,"Sand Fire, CALIFORNIA",2016-08-20 00:00:00+00:00,False,1,InciWeb,2016,-118.42638888889,34.431666666667,2016-07-22 14:15:00+00:00,,
EONET_2454,"Hatchery Fire, WYOMING",2016-07-31 00:00:00+00:00,False,1,InciWeb,2016,-107.33111111111,44.076388888889,2016-07-22 13:00:00+00:00,,
EONET_2461,"Coco Fire, ARIZONA",2016-08-25 00:00:00+00:00,False,1,InciWeb,2016,-112.03722222222,35.926944444444,2016-07-22 08:00:00+00:00,,
EONET_2455,"Soberanes Fire, CALIFORNIA",2016-10-20 00:00:00+00:00,False,2,CALFIRE|InciWeb,2016,-121.89938,36.45994,2016-07-22 00:00:00+00:00,,
EONET_2543,"Buck Creek Fire, WASHINGTON",2016-09-07 00:00:00+00:00,False,1,InciWeb,2016,-120.89416666667,48.112222222222,2016-07-22 00:00:00+00:00,,
EONET_2451,"Pinto Fire, NEVADA",2016-07-30 00:00:00+00:00,False,1,InciWeb,2016,-115.85916666667,39.476944444444,2016-07-21 12:15:00+00:00,,
EONET_2466,"Elk Fire, ARIZONA",2016-08-23 00:00:00+00:00,False,1,InciWeb,2016,-109.86027777778,34.181666666667,2016-07-21 12:00:00+00:00,,
EONET_2452,"Little Den Fire, NEVADA",2016-07-30 00:00:00+00:00,False,1,InciWeb,2016,-117.80444444444,39.315,2016-07-20 10:30:00+00:00,,
EONET_2536,"Crackerbox Fire, ARIZONA",2016-09-09 00:00:00+00:00,False,1,InciWeb,2016,-111.24666666667,34.497222222222,2016-07-20 00:00:00+00:00,,
EONET_2462,"Baldwin Fire, ARIZONA",2016-08-04 00:00:00+00:00,False,1,InciWeb,2016,-110.60472222222,34.356666666667,2016-07-19 18:45:00+00:00,,
EONET_2445,"Mile Marker 14 Fire, IDAHO",2016-08-05 00:00:00+00:00,False,1,InciWeb,2016,-116.03777777778,43.563611111111,2016-07-19 13:30:00+00:00,,
EONET_2447,"Pioneer Fire, IDAHO",2016-10-14 00:00:00+00:00,False,1,InciWeb,2016,-115.76166666667,43.950277777778,2016-07-18 17:00:00+00:00,,
EONET_2778,"Pioneer Fire, IDAHO",2017-04-26 00:00:00+00:00,False,1,InciWeb,2016,-115.76194444444,43.950277777778,2016-07-18 17:00:00+00:00,,
EONET_2479,"Cedar Fire, IDAHO",2016-09-02 00:00:00+00:00,False,1,InciWeb,2016,-114.69333333333,46.347777777778,2016-07-17 17:30:00+00:00,,
EONET_2442,"Cliff Creek Fire, WYOMING",2016-09-14 00:00:00+00:00,False,1,InciWeb,2016,-110.49111111111,43.239166666667,2016-07-17 14:30:00+00:00,,
EONET_2565,"Blue River Fire, British Columbia",2016-08-29 00:00:00+00:00,False,1,BCWILDFIRE,2016,-129.3486,59.8014,2016-07-17 00:00:00+00:00,,
EONET_2443,"Steamboat Creek Fire, ALASKA",2016-07-31 00:00:00+00:00,False,1,InciWeb,2016,-143.25083333333,61.293888888889,2016-07-15 15:30:00+00:00,,
EONET_2444,"Lava Mountain Fire, WYOMING",2016-08-28 00:00:00+00:00,False,1,InciWeb,2016,-109.96833333333,43.642222222222,2016-07-11 23:00:00+00:00,,
EONET_2415,"School Fire, NEW MEXICO",2016-07-25 00:00:00+00:00,False,1,InciWeb,2016,-108.57027777778,33.440833333333,2016-07-09 07:37:00+00:00,,
EONET_483,"Harris Fire, MONTANA",2016-07-19 00:00:00+00:00,False,1,InciWeb,2016,-106.6,45.183333333333,2016-07-09 00:00:00+00:00,,
EONET_482,"Hayden Pass Fire, COLORADO",2016-08-26 00:00:00+00:00,False,1,InciWeb,2016,-105.83305555556,38.292222222222,2016-07-08 18:00:00+00:00,,
EONET_2416,"Black Range Complex Fires, NEW MEXICO",2016-08-20 00:00:00+00:00,False,1,InciWeb,2016,-108.11666666667,33.431111111111,2016-07-08 00:00:00+00:00,,
EONET_481,"Baca Fire, ARIZONA",2016-07-22 00:00:00+00:00,False,1,InciWeb,2016,-113.2625,34.925833333333,2016-07-07 14:22:00+00:00,,
EONET_479,"Midnight Fire, FLORIDA",2016-07-15 00:00:00+00:00,False,1,InciWeb,2016,-81.39,29.083888888889,2016-07-06 23:50:00+00:00,,
EONET_472,"Buck Fire, IDAHO",2016-07-18 00:00:00+00:00,False,1,InciWeb,2016,-115.51472222222,44.374722222222,2016-07-03 11:00:00+00:00,,
EONET_470,"Hot Pot Fire, NEVADA",2016-07-19 00:00:00+00:00,False,1,InciWeb,2016,-116.92083333333,41.022222222222,2016-07-02 15:15:00+00:00,,
EONET_471,"Siberia Forest Fires, Russia, July 2016",2016-08-22 00:00:00+00:00,False,2,EO|IDC,2016,,,2016-07-02 00:00:00+00:00,,
EONET_2610,"Pinchot Fire, ARIZONA",2016-10-23 00:00:00+00:00,False,1,InciWeb,2016,-111.20583333333,34.463888888889,2016-08-29 00:00:00+00:00,,
EONET_2568,"Gap Fire, CALIFORNIA",2016-09-28 00:00:00+00:00,False,1,InciWeb,2016,-123.11833333333,41.850833333333,2016-08-27 19:45:00+00:00,,
EONET_2570,"Central Fire, WYOMING",2016-09-23 00:00:00+00:00,False,1,InciWeb,2016,-110.58583333333,44.578611111111,2016-08-26 00:00:00+00:00,,
EONET_2554,"Tie Canyon Fire, IDAHO",2016-09-06 00:00:00+00:00,False,1,InciWeb,2016,-111.24833333333,43.555555555556,2016-08-22 19:15:00+00:00,,
EONET_2552,"Peterson Hollow Fire, UTAH",2016-09-06 00:00:00+00:00,False,1,InciWeb,2016,-111.57305555556,41.994444444444,2016-08-21 15:30:00+00:00,,
EONET_2548,"Spokane Complex Fire, WASHINGTON",2016-08-29 00:00:00+00:00,False,1,InciWeb,2016,-117.34694444444,47.474444444444,2016-08-21 15:00:00+00:00,,
EONET_2551,"Hart Fire, WASHINGTON",2016-09-02 00:00:00+00:00,False,1,InciWeb,2016,-118.18194444444,47.789444444444,2016-08-21 14:45:00+00:00,,
EONET_2555,"Hart Fire (Cayuse Mtn), WASHINGTON",2016-09-04 00:00:00+00:00,False,1,InciWeb,2016,-118.18194444444,47.789444444444,2016-08-21 14:00:00+00:00,,
EONET_2544,"Cherry Road Fire, OREGON",2016-08-29 00:00:00+00:00,False,1,InciWeb,2016,-117.3125,43.559444444444,2016-08-21 13:00:00+00:00,,
EONET_2549,"Henrys Creek Fire, IDAHO",2016-09-07 00:00:00+00:00,False,1,InciWeb,2016,-111.94722222222,43.373611111111,2016-08-21 05:45:00+00:00,,
EONET_2540,"Rey Fire, CALIFORNIA",2016-09-02 00:00:00+00:00,False,1,InciWeb,2016,-119.805,34.546388888889,2016-08-18 15:15:00+00:00,,
EONET_2541,"Gun Club Fire, IDAHO",2016-08-29 00:00:00+00:00,False,1,InciWeb,2016,-116.30944444444,45.448055555556,2016-08-17 20:45:00+00:00,,
EONET_2542,"Withers Fire, OREGON",2016-08-31 00:00:00+00:00,False,1,InciWeb,2016,-120.62333333333,42.723055555556,2016-08-17 14:15:00+00:00,,
EONET_2534,"Monroe Fire, NEVADA",2016-08-20 00:00:00+00:00,False,1,InciWeb,2016,-117.89888888889,40.693055555556,2016-08-16 18:00:00+00:00,,
EONET_2529,"Cedar Fire, CALIFORNIA",2016-09-09 00:00:00+00:00,False,1,InciWeb,2016,-118.57611111111,35.744166666667,2016-08-16 16:30:00+00:00,,
EONET_2524,"Bluecut Fire, CALIFORNIA",2016-08-23 00:00:00+00:00,False,2,EO|InciWeb,2016,-117.46111111111,34.258888888889,2016-08-16 10:36:00+00:00,,
EONET_2573,"Moose fire, IDAHO",2016-09-26 00:00:00+00:00,False,1,InciWeb,2016,-114.7,46.225,2016-08-15 17:15:00+00:00,,
EONET_2522,"Honey Creek Fire, OKLAHOMA",2016-08-19 00:00:00+00:00,False,1,InciWeb,2016,-97.16,34.410277777778,2016-08-15 15:00:00+00:00,,
EONET_2582,"Broadway Fire, WYOMING",2016-10-21 00:00:00+00:00,False,1,InciWeb,2016,-106.76222222222,41.041666666667,2016-08-14 18:15:00+00:00,,
EONET_2557,"Chimney Fire, California",2016-09-06 00:00:00+00:00,False,1,CALFIRE,2016,-120.98316,35.70595,2016-08-13 00:00:00+00:00,,
EONET_2558,"Clayton Fire, California",2016-08-27 00:00:00+00:00,False,1,CALFIRE,2016,-122.60664,38.89741,2016-08-13 00:00:00+00:00,,
EONET_2587,"Buffalo Fire, Wyoming",2016-09-23 00:00:00+00:00,False,1,InciWeb,2016,-110.356,44.968,2016-08-13 00:00:00+00:00,,
EONET_2513,"Purnululu National Park Fire, Western Australia",2016-08-22 00:00:00+00:00,False,1,DFES_WA,2016,128.19,-17.33,2016-08-10 00:00:00+00:00,,
EONET_2510,"Hunter Peak Fire, WYOMING",2016-09-04 00:00:00+00:00,False,1,InciWeb,2016,-109.68027777778,44.856111111111,2016-08-09 18:30:00+00:00,,
EONET_2535,"Briggs Fire, UTAH",2016-08-29 00:00:00+00:00,False,1,InciWeb,2016,-112.46861111111,38.34,2016-08-09 16:00:00+00:00,,
EONET_2504,"Mineral Fire, California",2016-08-18 00:00:00+00:00,False,1,CALFIRE,2016,-120.51057,36.09974,2016-08-09 00:00:00+00:00,,
EONET_2520,"Maple Fire, WYOMING",2016-09-23 00:00:00+00:00,False,1,InciWeb,2016,-110.97805555556,44.743055555556,2016-08-08 19:45:00+00:00,,
EONET_2511,"Twin Lakes Fire, WYOMING",2016-08-26 00:00:00+00:00,False,1,InciWeb,2016,-108.98111111111,43.893611111111,2016-08-08 19:15:00+00:00,,
EONET_2500,"Juntura Complex Fire, OREGON",2016-08-27 00:00:00+00:00,False,1,InciWeb,2016,-117.90805555556,43.835833333333,2016-08-08 16:45:00+00:00,,
EONET_2581,"Lost Solar Fire, COLORADO",2016-10-11 00:00:00+00:00,False,1,InciWeb,2016,-107.46472222222,39.869166666667,2016-08-08 14:22:00+00:00,,
EONET_2501,"Overland Fire, NEVADA",2016-08-24 00:00:00+00:00,False,1,InciWeb,2016,-115.62583333333,39.966111111111,2016-08-08 13:15:00+00:00,,
EONET_2512,"Strawberry Fire, NEVADA",2016-08-20 00:00:00+00:00,False,1,InciWeb,2016,-114.30611111111,39.047777777778,2016-08-08 12:30:00+00:00,,
EONET_2508,Madeira Island Fires ,2016-08-13 00:00:00+00:00,False,1,CEMS,2016,,,2016-08-08 00:00:00+00:00,,
EONET_2490,"Pilot Fire, CALIFORNIA",2016-08-22 00:00:00+00:00,False,1,InciWeb,2016,-117.25055555556,34.288055555556,2016-08-07 12:15:00+00:00,,
EONET_2502,"Rough Fire, IDAHO",2016-09-14 00:00:00+00:00,False,1,InciWeb,2016,-115.43166666667,44.261388888889,2016-08-07 07:30:00+00:00,,
EONET_2850,"Rough Fire, IDAHO",2017-07-21 00:00:00+00:00,False,1,InciWeb,2016,-115.43166666667,44.261388888889,2016-08-07 07:30:00+00:00,,
EONET_2492,"Jackpot Fire, NEVADA",2016-08-18 00:00:00+00:00,False,1,InciWeb,2016,-119.94777777778,39.746666666667,2016-08-06 20:30:00+00:00,,
EONET_2493,"Dry Creek Fire, IDAHO",2016-08-22 00:00:00+00:00,False,1,InciWeb,2016,-115.03944444444,44.275,2016-08-06 11:45:00+00:00,,
EONET_2498,Northern Portugal Fires,2016-08-17 00:00:00+00:00,False,1,EO,2016,,,2016-08-06 00:00:00+00:00,,
EONET_2528,"Fawn Fire, WYOMING",2016-09-23 00:00:00+00:00,False,1,InciWeb,2016,-110.93833333333,44.925833333333,2016-08-04 20:30:00+00:00,,
EONET_2491,"Clark Fire, CALIFORNIA",2016-08-15 00:00:00+00:00,False,1,InciWeb,2016,-118.91888888889,37.782222222222,2016-08-04 14:00:00+00:00,,
EONET_2484,"Cold Fire, California",2016-08-12 00:00:00+00:00,False,1,CALFIRE,2016,-122.06788,38.52513,2016-08-03 00:00:00+00:00,,
EONET_2496,"La Palma Fires, Canary Islands",2016-08-08 00:00:00+00:00,False,1,CEMS,2016,,,2016-08-03 00:00:00+00:00,,
EONET_2488,"Whit Fire, WYOMING",2016-08-24 00:00:00+00:00,False,1,InciWeb,2016,-109.42666666667,44.439444444444,2016-08-02 14:20:00+00:00,,
EONET_2482,"Snake River Fire, WASHINGTON",2016-08-08 00:00:00+00:00,False,1,InciWeb,2016,-117.36472222222,46.591388888889,2016-08-02 12:50:00+00:00,,
EONET_2483,"Kewa Fire, WASHINGTON",2016-08-22 00:00:00+00:00,False,1,InciWeb,2016,-118.26472222222,48.156666666667,2016-08-02 00:00:00+00:00,,
EONET_2618,"Marshes Fire, California",2016-10-04 00:00:00+00:00,False,1,CALFIRE,2016,-120.32484,37.79635,2016-09-26 00:00:00+00:00,,
EONET_2619,"Loma Fire, California",2016-10-12 00:00:00+00:00,False,1,CALFIRE,2016,-121.85318,37.10632,2016-09-26 00:00:00+00:00,,
EONET_2617,"Sawmill Fire, California",2016-09-29 00:00:00+00:00,False,1,CALFIRE,2016,-122.82895,38.80017,2016-09-25 00:00:00+00:00,,
EONET_2597,"Owens River Fire, CALIFORNIA",2016-09-30 00:00:00+00:00,False,1,InciWeb,2016,-118.92083333333,37.78,2016-09-17 13:45:00+00:00,,
EONET_2599,"Soup Complex Fire, CALIFORNIA",2016-10-12 00:00:00+00:00,False,1,InciWeb,2016,-120.30611111111,41.296388888889,2016-09-17 12:00:00+00:00,,
EONET_2598,"Canyon Fire (Vandenberg Air Force Base), California",2016-09-27 00:00:00+00:00,False,2,CALFIRE|InciWeb,2016,-120.54421,34.63445,2016-09-17 00:00:00+00:00,,
EONET_2606,"Fill Fire, ARIZONA",2016-10-24 00:00:00+00:00,False,1,InciWeb,2016,-110.30972222222,34.237777777778,2016-09-15 10:45:00+00:00,,
EONET_2603,"Fulton Fire, ARIZONA",2016-10-03 00:00:00+00:00,False,1,InciWeb,2016,-110.89916666667,34.299722222222,2016-09-12 07:00:00+00:00,,
EONET_2586,"Willard Fire, California",2016-09-22 00:00:00+00:00,False,2,CALFIRE|InciWeb,2016,-120.7845,40.3915,2016-09-11 00:00:00+00:00,,
EONET_2604,"Ord Fire, ARIZONA",2016-09-26 00:00:00+00:00,False,1,InciWeb,2016,-111.41666666667,33.905277777778,2016-09-11 00:00:00+00:00,,
EONET_2594,"Rock Creek Fire, WASHINGTON",2016-09-21 00:00:00+00:00,False,1,InciWeb,2016,-120.95027777778,46.911111111111,2016-09-10 17:00:00+00:00,,
EONET_2584,"Snake Fire, WYOMING",2016-10-01 00:00:00+00:00,False,1,InciWeb,2016,-107.09583333333,41.034166666667,2016-09-10 16:00:00+00:00,,
EONET_2588,"Island of Thassos Fires, Greece",2016-09-14 00:00:00+00:00,False,1,CEMS,2016,,,2016-09-10 00:00:00+00:00,,
EONET_2585,"Fly Canyon Fire, UTAH",2016-09-23 00:00:00+00:00,False,1,InciWeb,2016,-111.30583333333,39.417777777778,2016-09-08 12:00:00+00:00,,
EONET_2579,"Kununurra Bushfire, Western Australia",2016-09-09 00:00:00+00:00,False,1,DFES_WA,2016,,,2016-09-06 00:00:00+00:00,,
EONET_2600,"Sam Jim Fire, ARIZONA",2016-10-24 00:00:00+00:00,False,1,InciWeb,2016,-110.83083333333,34.427777777778,2016-09-04 06:00:00+00:00,,
EONET_2576,"West Government Creek Fire, UTAH",2016-09-14 00:00:00+00:00,False,1,InciWeb,2016,-112.60722222222,40.017777777778,2016-09-02 15:00:00+00:00,,
EONET_2575,"Grape Creek Fire, IDAHO",2016-09-09 00:00:00+00:00,False,1,InciWeb,2016,-113.615,42.177222222222,2016-09-01 20:15:00+00:00,,
EONET_2574,"Maggie Fire, NEVADA",2016-09-04 00:00:00+00:00,False,1,InciWeb,2016,-116.19222222222,40.953888888889,2016-09-01 12:11:00+00:00,,
EONET_2662,"Hidden Fire, CALIFORNIA",2016-11-28 00:00:00+00:00,False,1,InciWeb,2016,-118.63583333333,36.251388888889,2016-10-29 17:45:00+00:00,,
EONET_2661,"Meadow Fire, CALIFORNIA",2016-11-28 00:00:00+00:00,False,1,InciWeb,2016,-118.55111111111,35.983611111111,2016-10-29 11:15:00+00:00,,
EONET_2645,"Boteler Fire, NORTH CAROLINA",2016-12-02 00:00:00+00:00,False,1,InciWeb,2016,-83.653611111111,35.058611111111,2016-10-25 09:00:00+00:00,,
EONET_2638,"Jacobson Fire, CALIFORNIA",2016-11-28 00:00:00+00:00,False,1,InciWeb,2016,-118.55055555556,36.217222222222,2016-10-20 17:00:00+00:00,,
EONET_2629,"Junkins Fire, COLORADO",2016-11-05 00:00:00+00:00,False,1,InciWeb,2016,-105.24361111111,38.119722222222,2016-10-17 03:45:00+00:00,,
EONET_2628,"Hicks Creek Fire, UTAH",2016-10-25 00:00:00+00:00,False,1,InciWeb,2016,-113.08638888889,37.563611111111,2016-10-16 17:00:00+00:00,,
EONET_2644,"Rough Ridge Fire, GEORGIA",2016-12-02 00:00:00+00:00,False,1,InciWeb,2016,-84.564166666667,34.896944444444,2016-10-16 15:15:00+00:00,,
EONET_2627,"Little Valley Fire, NEVADA",2016-10-23 00:00:00+00:00,False,1,InciWeb,2016,-119.88055555556,39.257777777778,2016-10-14 01:30:00+00:00,,
EONET_2623,"Sacata Fire, CALIFORNIA",2016-10-24 00:00:00+00:00,False,1,InciWeb,2016,-119.23527777778,36.918611111111,2016-10-11 13:00:00+00:00,,
EONET_2641,"Slate Fire, CALIFORNIA",2016-11-28 00:00:00+00:00,False,1,InciWeb,2016,-118.57666666667,36.083055555556,2016-10-04 04:00:00+00:00,,
EONET_2614,"Beulah Hill Fire, COLORADO",2016-10-18 00:00:00+00:00,False,1,InciWeb,2016,-104.98861111111,38.056666666667,2016-10-03 00:00:00+00:00,,
EONET_2673,"Chimney Tops 2 Fire, TENNESSEE",2016-12-14 00:00:00+00:00,False,1,InciWeb,2016,-83.477777777778,35.630833333333,2016-11-23 17:00:00+00:00,,
EONET_2671,"Camp Branch Fire, NORTH CAROLINA",2016-12-03 00:00:00+00:00,False,1,InciWeb,2016,-83.541111111111,35.164722222222,2016-11-23 06:45:00+00:00,,
EONET_2666,"Clear Creek Fire, NORTH CAROLINA",2016-12-01 00:00:00+00:00,False,1,InciWeb,2016,-82.101388888889,35.705,2016-11-20 00:45:00+00:00,,
EONET_8568,"Mount Pleasant Wildfire, Amherst, Virginia",2016-12-01 00:00:00+00:00,False,1,IRWIN,2016,-79.17038,37.72338,2016-11-19 19:34:00+00:00,11229.0,acres
EONET_2667,"Mt. Pleasant Fire, VIRGINIA",2016-12-02 00:00:00+00:00,False,1,InciWeb,2016,-79.183888888889,37.751944444444,2016-11-19 18:15:00+00:00,,
EONET_2677,Northern Israel Fires,2016-11-27 00:00:00+00:00,False,2,EO|IDC,2016,,,2016-11-18 00:00:00+00:00,,
EONET_2668,"Pinnacle Mountain Fire, SOUTH CAROLINA",2016-12-04 00:00:00+00:00,False,1,InciWeb,2016,-82.743055555556,35.026944444444,2016-11-09 20:30:00+00:00,,
EONET_2660,"Rock Mountain Fire, GEORGIA",2016-12-06 00:00:00+00:00,False,1,InciWeb,2016,-83.548888888889,34.941944444444,2016-11-09 00:00:00+00:00,,
EONET_2659,"Chestnut Knob Fire, NORTH CAROLINA",2016-12-08 00:00:00+00:00,False,1,InciWeb,2016,-81.635833333333,35.608055555556,2016-11-08 08:00:00+00:00,,
EONET_2649,"Ferebee Fire, NORTH CAROLINA",2016-11-30 00:00:00+00:00,False,1,InciWeb,2016,-83.652777777778,35.302777777778,2016-11-06 14:00:00+00:00,,
EONET_2657,"Party Rock Fire, NORTH CAROLINA",2016-12-01 00:00:00+00:00,False,1,InciWeb,2016,-82.2,35.45,2016-11-05 13:00:00+00:00,,
EONET_2647,"Maple Springs Fire, NORTH CAROLINA",2016-12-02 00:00:00+00:00,False,1,InciWeb,2016,-83.908333333333,35.397777777778,2016-11-04 20:10:00+00:00,,
EONET_2648,"Avey Branch Fire, NORTH CAROLINA",2016-11-25 00:00:00+00:00,False,1,InciWeb,2016,-83.897222222222,35.372777777778,2016-11-04 19:44:00+00:00,,
EONET_2646,"Tellico Fire, NORTH CAROLINA",2016-12-02 00:00:00+00:00,False,1,InciWeb,2016,-83.559722222222,35.273888888889,2016-11-03 15:00:00+00:00,,
EONET_2650,"Knob Fire, NORTH CAROLINA",2016-11-20 00:00:00+00:00,False,1,InciWeb,2016,-83.536111111111,35.108055555556,2016-11-02 15:45:00+00:00,,
EONET_2697,"Pampa, Argentina Wildfires",2017-01-13 00:00:00+00:00,False,2,EO|IDC,2016,,,2016-12-21 00:00:00+00:00,,
EONET_2687,"Bahia Blanca, Argentina Wildfire",2016-12-19 00:00:00+00:00,False,1,PDC,2016,-62.3,-38.8,2016-12-16 00:00:00+00:00,,
EONET_2683,"Mount Frankland National Park Fire, Western Australia",2016-12-27 00:00:00+00:00,False,1,EO,2016,,,2016-12-04 00:00:00+00:00,,
EONET_2682,"Cocklebiddy, Dundas, Western Australia Fire",2016-12-13 00:00:00+00:00,False,2,DFES_WA|EO,2016,,,2016-12-03 00:00:00+00:00,,
EONET_2706,"Hopper Fire, TEXAS",2017-01-25 00:00:00+00:00,False,1,InciWeb,2017,-98.136666666667,26.982222222222,2017-01-22 11:00:00+00:00,,
EONET_2705,Central Chile Fires,2017-02-06 00:00:00+00:00,False,4,CEMS|EO|IDC|PDC,2017,,,2017-01-12 00:00:00+00:00,,
EONET_2723,"Wildfire - Christchurch, New Zealand",2017-02-16 00:00:00+00:00,False,2,EO|PDC,2017,172.39749,-43.57374,2017-02-13 00:00:00+00:00,,
EONET_2722,"Wildfire - N of Mudgee, New South Wales - Australia",2017-02-14 00:00:00+00:00,False,1,PDC,2017,149.855134403,-32.297351369,2017-02-12 19:00:00+00:00,,
EONET_2765,"Cowbell Fire, FLORIDA",2017-06-15 00:00:00+00:00,False,1,InciWeb,2017,-80.977777777778,26.220833333333,2017-03-30 16:01:00+00:00,,
EONET_2753,"Parliament Fire, Florida",2017-04-11 00:00:00+00:00,False,1,InciWeb,2017,,,2017-03-18 00:00:00+00:00,,
EONET_2747,"Wildfire - Valparaiso, Chile",2017-03-17 00:00:00+00:00,False,1,PDC,2017,-71.5313,-33.07198,2017-03-13 13:40:00+00:00,,
EONET_2740,"Perryton Fire , TEXAS",2017-03-13 00:00:00+00:00,False,1,InciWeb,2017,-100.53472222222,36.093055555556,2017-03-06 16:00:00+00:00,,
EONET_2743,"Northwest Oklahoma Complex Fire, OKLAHOMA",2017-03-26 00:00:00+00:00,False,3,EO|InciWeb|PDC,2017,-100.17527777778,36.441111111111,2017-03-06 12:30:00+00:00,,
EONET_2732,"Rael Fire, NEW MEXICO",2017-03-08 00:00:00+00:00,False,1,InciWeb,2017,-108.33944444444,33.8,2017-03-02 11:30:00+00:00,,
EONET_2775,"Sawmill Fire, ARIZONA",2017-05-04 00:00:00+00:00,False,1,InciWeb,2017,-110.84222222222,31.782222222222,2017-04-23 11:00:00+00:00,,
EONET_2774,"Black Point Fire, FLORIDA",2017-05-03 00:00:00+00:00,False,1,InciWeb,2017,-80.742222222222,28.675,2017-04-21 15:30:00+00:00,,
EONET_2772,"Jayne Fire, California",2017-04-21 00:00:00+00:00,False,1,CALFIRE,2017,-120.26561,36.07228,2017-04-20 00:00:00+00:00,,
EONET_2767,"Wildfire - Santa Lucia, Honduras",2017-04-19 00:00:00+00:00,False,1,PDC,2017,-87.10995,14.11507,2017-04-11 13:53:00+00:00,,
EONET_2770,"Goshen Pass Fire, VIRGINIA",2017-04-20 00:00:00+00:00,False,1,InciWeb,2017,-79.458888888889,37.935277777778,2017-04-10 14:00:00+00:00,,
EONET_2768,"Dobson Knob Fire, NORTH CAROLINA",2017-04-28 00:00:00+00:00,False,1,InciWeb,2017,-82.002777777778,35.807777777778,2017-04-09 18:15:00+00:00,,
EONET_2766,"West Mims Fire, GEORGIA",2017-06-15 00:00:00+00:00,False,2,EO|InciWeb,2017,-82.323333333333,30.574444444444,2017-04-06 17:00:00+00:00,,
EONET_2834,"Krasnoyarsk Fires, Russia",2017-06-05 00:00:00+00:00,False,1,IDC,2017,96.931254,56.46283,2017-05-25 00:00:00+00:00,,
EONET_2960,"Wildfire MB-NE005, Manitoba, Canada",2017-06-04 00:00:00+00:00,False,1,MBFIRE,2017,-93.538,54.171,2017-05-24 00:00:00+00:00,,
EONET_2802,"Tete Jaune Cache, British Columbia Fire",2017-06-02 00:00:00+00:00,False,1,BCWILDFIRE,2017,-119.3403168,52.9758682,2017-05-23 00:00:00+00:00,,
EONET_2796,"Gate Fire, California",2017-05-23 00:00:00+00:00,False,1,CALFIRE,2017,-116.80527,32.65597,2017-05-20 00:00:00+00:00,,
EONET_2797,"Snake Ridge Fire, ARIZONA",2017-06-06 00:00:00+00:00,False,1,InciWeb,2017,-111.45722222222,34.602222222222,2017-05-19 00:00:00+00:00,,
EONET_2793,"Elm Fire, California",2017-05-21 00:00:00+00:00,False,1,CALFIRE,2017,-120.37116,36.12089,2017-05-18 00:00:00+00:00,,
EONET_2795,"Hondito Fire, NEW MEXICO",2017-06-13 00:00:00+00:00,False,1,InciWeb,2017,-106.02222222222,36.587222222222,2017-05-15 18:55:00+00:00,,
EONET_2798,"Baca Wildfire, NEW MEXICO",2017-07-14 00:00:00+00:00,False,1,InciWeb,2017,-108.40444444444,34.181111111111,2017-05-12 17:00:00+00:00,,
EONET_2806,"Dove Fire, ARIZONA",2017-06-05 00:00:00+00:00,False,1,InciWeb,2017,-109.9575,33.516388888889,2017-05-09 10:15:00+00:00,,
EONET_2794,"Pinal Fire, ARIZONA",2017-06-13 00:00:00+00:00,False,1,InciWeb,2017,-110.80638888889,33.281388888889,2017-05-08 15:15:00+00:00,,
EONET_2787,"Mulberry Fire, ARIZONA",2017-05-11 00:00:00+00:00,False,1,InciWeb,2017,-110.67388888889,31.963055555556,2017-05-06 14:00:00+00:00,,
EONET_2785,"International Fire, FLORIDA",2017-06-01 00:00:00+00:00,False,1,InciWeb,2017,-80.835555555556,28.804722222222,2017-05-04 15:00:00+00:00,,
EONET_2780,"Galiuro Wilderness Fire, Arizona",2017-05-07 00:00:00+00:00,False,1,PDC,2017,-110.30548095703124,32.54218257955071,2017-05-03 00:00:00+00:00,,
EONET_2786,"Kerr Fire, NEW MEXICO",2017-06-08 00:00:00+00:00,False,1,InciWeb,2017,-108.47416666667,33.8025,2017-05-01 13:45:00+00:00,,
EONET_2892,"Burro Fire, ARIZONA",2017-07-19 00:00:00+00:00,False,1,InciWeb,2017,-110.63277777778,32.374722222222,2017-06-30 10:30:00+00:00,,
EONET_2906,"Tarina Fire, California",2017-07-02 00:00:00+00:00,False,1,CALFIRE,2017,-118.80123,35.38298,2017-06-30 00:00:00+00:00,,
EONET_2865,"Wildfire - NW of Yakima, Washington - United States",2017-07-08 00:00:00+00:00,False,1,PDC,2017,-120.600823929,46.717253405,2017-06-28 19:00:00+00:00,,
EONET_2912,"Castellón Fires, Spain",2017-06-29 00:00:00+00:00,False,1,CEMS,2017,-0.50537109375,39.791654835253446,2017-06-28 00:00:00+00:00,,
EONET_2905,"SH Creek  Fire, ARIZONA",2017-07-27 00:00:00+00:00,False,1,InciWeb,2017,-109.34222222222,38.4675,2017-06-27 17:45:00+00:00,,
EONET_2903,"Peekaboo Fire, COLORADO",2017-07-17 00:00:00+00:00,False,1,InciWeb,2017,-108.83444444444,40.793611111111,2017-06-27 17:32:00+00:00,,
EONET_2866,"Swisshelms Fire, ARIZONA",2017-07-14 00:00:00+00:00,False,1,InciWeb,2017,-109.52388888889,31.680555555556,2017-06-27 17:15:00+00:00,,
EONET_2890,"Tiffany Fire, NEW MEXICO",2017-07-17 00:00:00+00:00,False,1,InciWeb,2017,-106.99694444444,33.685,2017-06-26 18:53:00+00:00,,
EONET_2864,"Cole Creek Fire, NEVADA",2017-07-05 00:00:00+00:00,False,1,InciWeb,2017,-116.11861111111,40.585555555556,2017-06-26 16:00:00+00:00,,
EONET_2862,"Spartan Fire, WASHINGTON",2017-07-07 00:00:00+00:00,False,1,InciWeb,2017,-120.16638888889,47.3425,2017-06-26 00:00:00+00:00,,
EONET_2885,"Manzanita Fire, California",2017-06-30 00:00:00+00:00,False,1,CALFIRE,2017,-116.594422,33.530045,2017-06-26 00:00:00+00:00,,
EONET_2886,"Hill Fire, California",2017-07-01 00:00:00+00:00,False,1,CALFIRE,2017,-120.4992,35.4025,2017-06-26 00:00:00+00:00,,
EONET_2961,"Wildfire MB-NE030, Manitoba, Canada",2017-07-20 00:00:00+00:00,False,1,MBFIRE,2017,-96.8705,56.7691,2017-06-26 00:00:00+00:00,,
EONET_2863,"Mink Fire, ARIZONA",2017-07-02 00:00:00+00:00,False,1,InciWeb,2017,-111.34916666667,31.5375,2017-06-25 20:15:00+00:00,,
EONET_2950,"Island Fire, CALIFORNIA",2017-09-20 00:00:00+00:00,False,1,InciWeb,2017,-123.16222222222,41.434722222222,2017-06-25 17:00:00+00:00,,
EONET_2867,"Maynard Fire , ARIZONA",2017-07-03 00:00:00+00:00,False,1,InciWeb,2017,-111.28972222222,31.725277777778,2017-06-25 02:00:00+00:00,,
EONET_2893,"Hilltop Fire, ARIZONA",2017-07-12 00:00:00+00:00,False,1,InciWeb,2017,-110.37527777778,33.634444444444,2017-06-25 00:00:00+00:00,,
EONET_2884,"Schaeffer Fire, CALIFORNIA",2017-07-27 00:00:00+00:00,False,1,InciWeb,2017,-118.41166666667,36.099166666667,2017-06-24 16:16:00+00:00,,
EONET_2859,"Goodwin Fire, ARIZONA",2017-07-10 00:00:00+00:00,False,2,EO|InciWeb,2017,-112.37305555556,34.3575,2017-06-24 16:00:00+00:00,,
EONET_2858,"Saddle Fire, ARIZONA",2017-07-19 00:00:00+00:00,False,1,InciWeb,2017,-109.4275,31.589166666667,2017-06-24 15:00:00+00:00,,
EONET_2860,"Huelva, Spain Fire",2017-06-26 00:00:00+00:00,False,1,CEMS,2017,-6.5863037109375,37.100098265217184,2017-06-24 00:00:00+00:00,,
EONET_2849,"303 Fire, ARIZONA",2017-07-03 00:00:00+00:00,False,1,InciWeb,2017,-112.12861111111,33.767777777778,2017-06-22 13:45:00+00:00,,
EONET_2856,"Seven Fire, NEW MEXICO",2017-07-31 00:00:00+00:00,False,1,InciWeb,2017,-108.46277777778,33.514166666667,2017-06-22 13:15:00+00:00,,
EONET_2855,"Bar X Fire, ARIZONA",2017-07-19 00:00:00+00:00,False,1,InciWeb,2017,-109.84138888889,32.5125,2017-06-21 14:45:00+00:00,,
EONET_2848,"Encino Fire , ARIZONA",2017-07-03 00:00:00+00:00,False,1,InciWeb,2017,-110.64583333333,31.653333333333,2017-06-20 20:00:00+00:00,,
EONET_2847,"Red Springs Fire, NEVADA",2017-07-01 00:00:00+00:00,False,1,InciWeb,2017,-115.72555555556,40.488888888889,2017-06-20 13:57:00+00:00,,
EONET_8584,"HOLCOMB Wildfire, San Bernardino, California",2017-06-28 00:00:00+00:00,False,1,IRWIN,2017,-116.8473,34.27334,2017-06-19 18:15:00+00:00,1503.0,acres
EONET_2845,"Holcomb Fire, CALIFORNIA",2017-07-13 00:00:00+00:00,False,1,InciWeb,2017,-116.81583333333,34.299444444444,2017-06-19 15:05:00+00:00,,
EONET_2843,"Maggie Fire, ARIZONA",2017-06-23 00:00:00+00:00,False,1,InciWeb,2017,-112.1625,34.150833333333,2017-06-18 15:00:00+00:00,,
EONET_2840,"Highway Fire, CALIFORNIA",2017-07-18 00:00:00+00:00,False,1,InciWeb,2017,-118.58027777778,35.57,2017-06-18 14:30:00+00:00,,
EONET_2839,Wildfires - Central Portugal,2017-06-23 00:00:00+00:00,False,2,CEMS|PDC,2017,-8.172507452,39.962105286,2017-06-18 11:57:00+00:00,,
EONET_2846,"Brian Head Fire, UTAH",2017-07-18 00:00:00+00:00,False,3,EO|InciWeb|PDC,2017,-112.83666666667,37.717777777778,2017-06-17 12:13:00+00:00,,
EONET_2841,"East Fork Fire, ALASKA",2017-06-28 00:00:00+00:00,False,1,InciWeb,2017,-150.52111111111,60.596388888889,2017-06-15 18:30:00+00:00,,
EONET_2837,"Cajete Fire, NEW MEXICO",2017-07-24 00:00:00+00:00,False,1,InciWeb,2017,-106.57277777778,35.825,2017-06-15 13:00:00+00:00,,
EONET_2833,"Flying R Fire, ARIZONA",2017-06-18 00:00:00+00:00,False,1,InciWeb,2017,-110.69527777778,31.432777777778,2017-06-14 12:00:00+00:00,,
EONET_2829,"Dead Dog Fire, COLORADO",2017-06-18 00:00:00+00:00,False,1,InciWeb,2017,-108.815,40.153055555556,2017-06-11 14:48:00+00:00,,
EONET_2825,"Hunter Fire, COLORADO",2017-06-17 00:00:00+00:00,False,1,InciWeb,2017,-108.30916666667,39.778888888889,2017-06-10 14:45:00+00:00,,
EONET_2822,"Oakwood Fire, California",2017-06-13 00:00:00+00:00,False,1,CALFIRE,2017,-119.8011,37.0825,2017-06-10 00:00:00+00:00,,
EONET_2826,"Highline Fire, ARIZONA",2017-06-24 00:00:00+00:00,False,1,InciWeb,2017,-111.21833333333,34.396666666667,2017-06-10 00:00:00+00:00,,
EONET_2852,"Siberia, Russia Summer Fire Season",2017-09-05 00:00:00+00:00,False,1,EO,2017,,,2017-06-10 00:00:00+00:00,,
EONET_2830,"Straw Fire, NEW MEXICO",2017-07-07 00:00:00+00:00,False,1,InciWeb,2017,-108.36888888889,33.234166666667,2017-06-09 14:30:00+00:00,,
EONET_2831,"Gravel Fire, NEW MEXICO",2017-07-14 00:00:00+00:00,False,1,InciWeb,2017,-108.62833333333,33.413333333333,2017-06-09 14:00:00+00:00,,
EONET_2818,"Paige Creek Fire, ARIZONA",2017-06-13 00:00:00+00:00,False,1,InciWeb,2017,-110.46027777778,32.142222222222,2017-06-07 17:15:00+00:00,,
EONET_2838,"Frye Fire, ARIZONA",2017-07-30 00:00:00+00:00,False,1,InciWeb,2017,-109.87166666667,32.735277777778,2017-06-07 17:15:00+00:00,,
EONET_2811,"Bowie Fire, ARIZONA",2017-06-14 00:00:00+00:00,False,1,InciWeb,2017,-109.4275,32.155277777778,2017-06-07 16:45:00+00:00,,
EONET_2820,"Lizard Fire, ARIZONA",2017-07-19 00:00:00+00:00,False,1,InciWeb,2017,-110.00083333333,32.001388888889,2017-06-07 15:30:00+00:00,,
EONET_2809,"Smith Fire, ARIZONA",2017-06-09 00:00:00+00:00,False,1,InciWeb,2017,-110.54611111111,31.722777777778,2017-06-07 14:30:00+00:00,,
EONET_2824,"Rucker Fire, ARIZONA",2017-06-22 00:00:00+00:00,False,1,InciWeb,2017,-109.32277777778,31.770555555556,2017-06-07 12:00:00+00:00,,
EONET_2832,"Teacher Fire, NEW MEXICO",2017-07-14 00:00:00+00:00,False,1,InciWeb,2017,-108.56805555556,33.43,2017-06-07 09:00:00+00:00,,
EONET_2815,"Knysa, South Africa Fire",2017-06-16 00:00:00+00:00,False,2,IDC|NASA_DISP,2017,,,2017-06-07 00:00:00+00:00,,
EONET_2828,"Round Fire, NEW MEXICO",2017-07-31 00:00:00+00:00,False,1,InciWeb,2017,-107.90361111111,33.319166666667,2017-06-06 16:00:00+00:00,,
EONET_2819,"Corral Fire, NEW MEXICO",2017-07-07 00:00:00+00:00,False,1,InciWeb,2017,-108.12388888889,33.1775,2017-06-04 19:00:00+00:00,,
EONET_2827,"Bonita Fire, NEW MEXICO",2017-07-07 00:00:00+00:00,False,1,InciWeb,2017,-106.19861111111,36.613055555556,2017-06-03 17:30:00+00:00,,
EONET_2812,"Bear Fire, ARIZONA",2017-06-15 00:00:00+00:00,False,1,InciWeb,2017,-111.23027777778,34.446388888889,2017-06-01 16:00:00+00:00,,
EONET_2810,"Boundary Fire, ARIZONA",2017-07-11 00:00:00+00:00,False,1,InciWeb,2017,-111.83138888889,35.431666666667,2017-06-01 14:02:00+00:00,,
EONET_2808,"Slim Fire, ARIZONA",2017-06-10 00:00:00+00:00,False,1,InciWeb,2017,-110.84222222222,34.425833333333,2017-06-01 12:51:00+00:00,,
EONET_2817,"Freeze 2 Fire, ARIZONA",2017-06-17 00:00:00+00:00,False,1,InciWeb,2017,-109.6175,33.566944444444,2017-06-01 00:00:00+00:00,,
EONET_3064,"Devils Lake Fire, OREGON",2017-08-27 00:00:00+00:00,False,1,InciWeb,2017,-120.98083333333,42.313333333333,2017-07-31 15:00:00+00:00,,
EONET_3216,"Summit Complex Fire, CALIFORNIA",2017-11-30 00:00:00+00:00,False,1,InciWeb,2017,-119.78194444444,38.328888888889,2017-07-31 13:44:00+00:00,,
EONET_3050,"Quinn Fire, NEVADA",2017-08-04 00:00:00+00:00,False,1,InciWeb,2017,-117.39722222222,41.896944444444,2017-07-31 10:15:00+00:00,,
EONET_3018,"Roadrunner Fire, California",2017-08-04 00:00:00+00:00,False,1,CALFIRE,2017,-118.94252,36.0226,2017-07-30 17:43:00+00:00,,
EONET_3049,"Garden Fire, CALIFORNIA",2017-08-10 00:00:00+00:00,False,1,InciWeb,2017,-118.64777777778,35.531111111111,2017-07-30 16:17:00+00:00,,
EONET_3025,"Pole Creek Fire, NEVADA",2017-08-05 00:00:00+00:00,False,1,InciWeb,2017,-115.33333333333,41.255277777778,2017-07-30 14:00:00+00:00,,
EONET_3055,"Island Pond Fire, British Columbia, Canada",2017-08-19 00:00:00+00:00,False,1,BCWILDFIRE,2017,-115.75335,50.02085,2017-07-30 00:00:00+00:00,,
EONET_3063,"Spruce Lake Fire, OREGON",2017-08-13 00:00:00+00:00,False,1,InciWeb,2017,-122.28166666667,42.980277777778,2017-07-29 15:45:00+00:00,,
EONET_3054,"White River Fire, British Columbia, Canada",2017-09-11 00:00:00+00:00,False,1,BCWILDFIRE,2017,-115.2307129,50.3195496,2017-07-29 00:00:00+00:00,,
EONET_3118,"Highline Fire, IDAHO",2017-09-21 00:00:00+00:00,False,1,InciWeb,2017,-115.23333333333,45.494444444444,2017-07-29 00:00:00+00:00,,
EONET_3176,"Wildfire MB-NW016, Manitoba, Canada",2017-09-28 00:00:00+00:00,False,1,MBFIRE,2017,-99.6625,55.5061,2017-07-29 00:00:00+00:00,,
EONET_3266,"White River- Modified Response Fire, British Columbia, Canada",2017-10-17 00:00:00+00:00,False,1,BCWILDFIRE,2017,-115.347084,50.2129669,2017-07-29 00:00:00+00:00,,
EONET_3081,"Wildfire MB-NE098, Manitoba, Canada",2017-10-01 00:00:00+00:00,False,1,MBFIRE,2017,-99.6875,58.92694444,2017-07-28 00:00:00+00:00,,
EONET_3094,"North Fork Hughes Fire, IDAHO",2017-09-25 00:00:00+00:00,False,1,InciWeb,2017,-117.0375,48.901388888889,2017-07-28 00:00:00+00:00,,
EONET_3123,"Wildfire MB-NE099, Manitoba, Canada",2017-09-06 00:00:00+00:00,False,1,MBFIRE,2017,-100.6756,58.5911,2017-07-28 00:00:00+00:00,,
EONET_3175,"Wildfire MB-NW010, Manitoba, Canada",2017-09-24 00:00:00+00:00,False,1,MBFIRE,2017,-100.715,55.735,2017-07-28 00:00:00+00:00,,
EONET_3056,"Harrop Creek Fire, British Columbia, Canada",2017-09-24 00:00:00+00:00,False,1,BCWILDFIRE,2017,-117.0287167,49.5290167,2017-07-27 00:00:00+00:00,,
EONET_3074,Southeastern Spain Wildfires,2017-08-04 00:00:00+00:00,False,1,CEMS,2017,,,2017-07-27 00:00:00+00:00,,
EONET_3080,"Wildfire MB-NE089, Manitoba, Canada",2017-08-08 00:00:00+00:00,False,1,MBFIRE,2017,-96.83888889,58.40888889,2017-07-27 00:00:00+00:00,,
EONET_3104,Northern Tunisia/Algeria Fires,2017-08-10 00:00:00+00:00,False,2,CEMS|ReliefWeb,2017,,,2017-07-27 00:00:00+00:00,,
EONET_3250,"Wildfire MB-NE090, Manitoba, Canada",2017-09-27 00:00:00+00:00,False,1,MBFIRE,2017,-95.4794,53.7144,2017-07-27 00:00:00+00:00,,
EONET_3013,"Latrobe Fire, California",2017-08-04 00:00:00+00:00,False,1,CALFIRE,2017,-121.104,38.5181,2017-07-26 14:45:00+00:00,,
EONET_3079,"Wildfire MB-NE087, Manitoba, Canada",2017-08-28 00:00:00+00:00,False,1,MBFIRE,2017,-96.42361111,53.9325,2017-07-26 00:00:00+00:00,,
EONET_3140,"High Cascades Complex Fire, Oregon",2017-10-15 00:00:00+00:00,False,1,InciWeb,2017,-122.22015380859376,42.94234987312984,2017-07-26 00:00:00+00:00,,
EONET_3024,"Orleans Complex Fire, CALIFORNIA",2017-09-26 00:00:00+00:00,False,1,InciWeb,2017,-123.48916666667,41.605,2017-07-25 21:00:00+00:00,,
EONET_3011,"Wildfire - SE of Carson City, Nevada - United States",2017-08-04 00:00:00+00:00,False,1,PDC,2017,-119.602755553,38.866582464,2017-07-25 19:00:00+00:00,,
EONET_3021,"Clear Fire, CALIFORNIA",2017-08-15 00:00:00+00:00,False,1,InciWeb,2017,-123.5075,41.701944444444,2017-07-25 12:45:00+00:00,,
EONET_3048,"Blanket Creek Fire, OREGON",2017-08-13 00:00:00+00:00,False,1,InciWeb,2017,-122.32222222222,42.798888888889,2017-07-25 05:58:00+00:00,,
EONET_3059,"Mahogany Fire, NEVADA",2017-08-09 00:00:00+00:00,False,1,InciWeb,2017,-118.66666666667,41.82,2017-07-24 20:00:00+00:00,,
EONET_3029,"Modoc July Complex Fire, CALIFORNIA",2017-09-08 00:00:00+00:00,False,1,InciWeb,2017,-120.93972222222,41.968611111111,2017-07-24 17:15:00+00:00,,
EONET_3053,"Rice Ridge Fire, MONTANA",2017-10-20 00:00:00+00:00,False,1,InciWeb,2017,-113.48527777778,47.268055555556,2017-07-24 16:30:00+00:00,,
EONET_3068,"Ibex Fire, IDAHO",2017-10-17 00:00:00+00:00,False,1,InciWeb,2017,-114.69055555556,44.591388888889,2017-07-24 15:45:00+00:00,,
EONET_3033,"Buffalo Fire, MONTANA",2017-07-31 00:00:00+00:00,False,1,InciWeb,2017,-105.73083333333,45.041111111111,2017-07-24 12:45:00+00:00,,
EONET_3057,"Upper Mine Fire, OREGON",2017-08-01 00:00:00+00:00,False,1,InciWeb,2017,-118.62972222222,42.141111111111,2017-07-24 09:49:00+00:00,,
EONET_2984,"Four Seasons Complex Fire, NEVADA",2017-08-08 00:00:00+00:00,False,1,InciWeb,2017,-116.76027777778,41.494722222222,2017-07-24 06:00:00+00:00,,
EONET_3012,"Provence-Alpes-Côte dAzur Fires, France",2017-07-29 00:00:00+00:00,False,2,CEMS|PDC,2017,,,2017-07-24 00:00:00+00:00,,
EONET_3060,"Leonard Creek Fire, NEVADA",2017-08-01 00:00:00+00:00,False,1,InciWeb,2017,-118.76638888889,41.5225,2017-07-23 21:15:00+00:00,,
EONET_3065,"Whitewater Fire, OREGON",2017-09-27 00:00:00+00:00,False,1,InciWeb,2017,-121.85666666667,44.706666666667,2017-07-23 17:30:00+00:00,,
EONET_3045,Corsica Fires,2014-07-29 00:00:00+00:00,False,2,CEMS|EO,2017,9.438629150390623,42.58746644784856,2017-07-23 00:00:00+00:00,,
EONET_3210,"Diamond Creek Fire, British Columbia, Canada",2017-09-22 00:00:00+00:00,False,1,BCWILDFIRE,2017,-120.39855,48.8531333,2017-07-23 00:00:00+00:00,,
EONET_3186,"Alice Creek Fire, MONTANA",2017-10-10 00:00:00+00:00,False,1,InciWeb,2017,-112.50166666667,47.154166666667,2017-07-22 18:37:00+00:00,,
EONET_3023,"Diamond Creek Fire, WASHINGTON",2017-10-23 00:00:00+00:00,False,1,InciWeb,2017,-120.41333333333,48.855,2017-07-22 00:00:00+00:00,,
EONET_3078,"Wildfire MB-NE067, Manitoba, Canada",2017-09-04 00:00:00+00:00,False,1,MBFIRE,2017,-97.08888889,53.57611111,2017-07-22 00:00:00+00:00,,
EONET_3121,"Wildfire MB-NE063, Manitoba, Canada",2017-09-06 00:00:00+00:00,False,1,MBFIRE,2017,-96.5136,56.8092,2017-07-21 00:00:00+00:00,,
EONET_3122,"Wildfire MB-NE064, Manitoba, Canada",2017-09-25 00:00:00+00:00,False,1,MBFIRE,2017,-95.6386,57.0494,2017-07-21 00:00:00+00:00,,
EONET_3037,"Goat Creek Fire, MONTANA",2017-08-24 00:00:00+00:00,False,1,InciWeb,2017,-113.63527777778,46.649722222222,2017-07-19 16:37:00+00:00,,
EONET_3035,"Lodgepole Complex Fire, MONTANA",2017-07-31 00:00:00+00:00,False,2,EO|InciWeb,2017,-107.75805555556,47.318333333333,2017-07-19 15:17:00+00:00,,
EONET_2994,"Crying Fire, MONTANA",2017-07-24 00:00:00+00:00,False,1,InciWeb,2017,-108.03472222222,47.323333333333,2017-07-19 12:15:00+00:00,,
EONET_3052,"Pine Hollow Fire, ARIZONA",2017-08-10 00:00:00+00:00,False,1,InciWeb,2017,-112.39,36.59,2017-07-19 00:00:00+00:00,,
EONET_3038,"Arrastra Creek Fire, MONTANA",2017-08-31 00:00:00+00:00,False,1,InciWeb,2017,-112.79694444444,47.042222222222,2017-07-18 20:00:00+00:00,,
EONET_2991,"June Fire, WYOMING",2017-09-26 00:00:00+00:00,False,1,InciWeb,2017,-109.7225,44.439444444444,2017-07-18 17:00:00+00:00,,
EONET_2985,"Hudson Fire, California",2017-07-19 00:00:00+00:00,False,1,CALFIRE,2017,-119.44751,34.94373,2017-07-18 11:45:00+00:00,,
EONET_2993,"Cedar Mountain Fire, UTAH",2017-08-07 00:00:00+00:00,False,1,InciWeb,2017,-112.955,40.705,2017-07-17 19:14:00+00:00,,
EONET_2990,"Wildfire - NE of Merced, California - United States",2017-07-26 00:00:00+00:00,False,1,PDC,2017,-120.098480611,37.611578416,2017-07-17 19:00:00+00:00,,
EONET_2989,"Oil Well Fire, NEVADA",2017-07-26 00:00:00+00:00,False,1,InciWeb,2017,-115.77722222222,40.908055555556,2017-07-17 13:30:00+00:00,,
EONET_2981,"Park Fire, California",2017-08-04 00:00:00+00:00,False,1,CALFIRE,2017,-120.55579,35.95911,2017-07-17 13:15:00+00:00,,
EONET_2987,"Grass Valley Fire, NEVADA",2017-07-22 00:00:00+00:00,False,1,InciWeb,2017,-117.69972222222,40.705833333333,2017-07-17 04:45:00+00:00,,
EONET_3034,"Monahan Fire, MONTANA",2017-10-07 00:00:00+00:00,False,1,InciWeb,2017,-113.13833333333,47.273055555556,2017-07-16 17:30:00+00:00,,
EONET_2988,"Onaqui Mountain Complex Fire, UTAH",2017-07-21 00:00:00+00:00,False,1,InciWeb,2017,-112.6325,40.173055555556,2017-07-16 17:00:00+00:00,,
EONET_2986,"Wanblee Timber Fire, SOUTH DAKOTA",2017-07-20 00:00:00+00:00,False,1,InciWeb,2017,-101.53305555556,43.598888888889,2017-07-16 16:30:00+00:00,,
EONET_2977,"Detwiler Fire, California",2017-08-24 00:00:00+00:00,False,2,CALFIRE|EO,2017,-120.21321,37.61757,2017-07-16 15:56:00+00:00,,
EONET_3020,"Sunrise Fire, MONTANA",2017-10-06 00:00:00+00:00,False,1,InciWeb,2017,-114.87888888889,47.036666666667,2017-07-16 00:00:00+00:00,,
EONET_3044,Montenegro Fires,2017-07-26 00:00:00+00:00,False,3,EO|IDC|NASA_DISP,2017,18.6278,42.39452,2017-07-16 00:00:00+00:00,,
EONET_3026,"Lolo Peak Fire, MONTANA",2017-10-14 00:00:00+00:00,False,2,InciWeb|PDC,2017,-114.27,46.675,2017-07-15 14:34:00+00:00,,
EONET_2992,"Missouri Fire, IDAHO",2017-09-15 00:00:00+00:00,False,1,InciWeb,2017,-115.40083333333,44.997777777778,2017-07-15 10:30:00+00:00,,
EONET_2983,"Craig Mountain Complex Fire, IDAHO",2017-07-28 00:00:00+00:00,False,1,InciWeb,2017,-116.7175,46.035555555556,2017-07-15 10:00:00+00:00,,
EONET_3032,"Noisy Creek Fire, WASHINGTON",2017-09-25 00:00:00+00:00,False,1,InciWeb,2017,-117.26111111111,48.799444444444,2017-07-15 08:00:00+00:00,,
EONET_2971,"Snake River Fire, WASHINGTON",2017-07-19 00:00:00+00:00,False,1,InciWeb,2017,-117.25138888889,46.447222222222,2017-07-15 06:00:00+00:00,,
EONET_3027,"Liberty Fire, MONTANA",2017-09-20 00:00:00+00:00,False,1,InciWeb,2017,-113.77972222222,47.138611111111,2017-07-15 06:00:00+00:00,,
EONET_3009,"Verdant Creek /      Parks Canada Fire, British Columbia, Canada",2017-09-21 00:00:00+00:00,False,1,BCWILDFIRE,2017,-115.82975,50.9892833,2017-07-15 00:00:00+00:00,,
EONET_3077,"Wildfire MB-NE054, Manitoba, Canada",2017-08-23 00:00:00+00:00,False,1,MBFIRE,2017,-93.69472222,57.26694444,2017-07-15 00:00:00+00:00,,
EONET_2982,"Park Creek Fire, MONTANA",2017-07-31 00:00:00+00:00,False,1,InciWeb,2017,-112.69055555556,47.020833333333,2017-07-14 21:15:00+00:00,,
EONET_2972,"Cornucopia Fire, NEVADA",2017-07-31 00:00:00+00:00,False,1,InciWeb,2017,-116.44861111111,41.557777777778,2017-07-14 20:30:00+00:00,,
EONET_2973,"Snowstorm Fire, NEVADA",2017-07-19 00:00:00+00:00,False,1,InciWeb,2017,-116.87055555556,41.371944444444,2017-07-14 18:30:00+00:00,,
EONET_3067,"Lone Pine Fire, IDAHO",2017-10-02 00:00:00+00:00,False,1,InciWeb,2017,-115.03638888889,46.083611111111,2017-07-14 17:45:00+00:00,,
EONET_3030,"Meyers Fire, MONTANA",2017-10-13 00:00:00+00:00,False,1,InciWeb,2017,-113.57972222222,45.995277777778,2017-07-14 17:30:00+00:00,,
EONET_3051,"Moose Creek 1 Fire, IDAHO",2017-09-20 00:00:00+00:00,False,1,InciWeb,2017,-114.91305555556,46.121944444444,2017-07-14 16:03:00+00:00,,
EONET_2974,"Summer Fire, NEVADA",2017-07-24 00:00:00+00:00,False,1,InciWeb,2017,-114.84583333333,41.322222222222,2017-07-14 15:30:00+00:00,,
EONET_3036,"Little Hogback Fire, MONTANA",2017-08-24 00:00:00+00:00,False,1,InciWeb,2017,-113.68861111111,46.446666666667,2017-07-13 17:51:00+00:00,,
EONET_3022,"Sapphire Complex Fire, MONTANA",2017-10-06 00:00:00+00:00,False,1,InciWeb,2017,-113.58444444444,46.5875,2017-07-13 15:00:00+00:00,,
EONET_3031,"Whetstone Ridge Fire, MONTANA",2017-08-03 00:00:00+00:00,False,1,InciWeb,2017,-113.64666666667,46.048888888889,2017-07-13 08:30:00+00:00,,
EONET_2963,"Wildfire MB-NE047, Manitoba, Canada",2017-10-01 00:00:00+00:00,False,1,MBFIRE,2017,-100.3297,57.3655,2017-07-13 00:00:00+00:00,,
EONET_3017,"Wentworth Creek-C11053-Quesnel Area Command Fire, British Columbia, Canada",2017-08-14 00:00:00+00:00,False,1,BCWILDFIRE,2017,-123.338768,52.6501999,2017-07-13 00:00:00+00:00,,
EONET_3168,"Galena Fire, British Columbia, Canada",2017-09-20 00:00:00+00:00,False,1,BCWILDFIRE,2017,-117.79145,50.6368667,2017-07-13 00:00:00+00:00,,
EONET_3028,"Chetco Bar Fire, OREGON",2017-10-20 00:00:00+00:00,False,1,InciWeb,2017,-123.95361111111,42.296666666667,2017-07-12 13:45:00+00:00,,
EONET_2978,"Bravo 17 Fire, NEVADA",2017-08-23 00:00:00+00:00,False,1,InciWeb,2017,-118.14,39.175555555556,2017-07-12 06:28:00+00:00,,
EONET_2962,"Wildfire MB-NE044, Manitoba, Canada",2017-10-03 00:00:00+00:00,False,1,MBFIRE,2017,-93.8172,55.9225,2017-07-12 00:00:00+00:00,,
EONET_2951,"Fife Fire , ARIZONA",2017-07-24 00:00:00+00:00,False,1,InciWeb,2017,-109.43583333333,31.901944444444,2017-07-11 22:00:00+00:00,,
EONET_2932,"Long Valley Fire, CALIFORNIA",2017-07-24 00:00:00+00:00,False,1,InciWeb,2017,-120.145,40.073333333333,2017-07-11 14:00:00+00:00,,
EONET_2968,"Hyde Fire, ARIZONA",2017-07-24 00:00:00+00:00,False,1,InciWeb,2017,-112.87333333333,34.832222222222,2017-07-11 03:00:00+00:00,,
EONET_3298,"Ojitos Fire, NEW MEXICO",2017-10-23 00:00:00+00:00,False,1,InciWeb,2017,-106.70583333333,36.325,2017-07-11 00:00:00+00:00,,
EONET_3089,"Hidden Fire, IDAHO",2017-10-21 00:00:00+00:00,False,1,InciWeb,2017,-114.50888888889,46.381111111111,2017-07-10 16:15:00+00:00,,
EONET_2949,"Blue Ridge Complex Fire, MONTANA",2017-07-17 00:00:00+00:00,False,1,InciWeb,2017,-107.81138888889,47.409166666667,2017-07-10 11:10:00+00:00,,
EONET_2958,"Vesuvius Wildfires, Italy",2017-07-14 00:00:00+00:00,False,2,CEMS|EO,2017,14.41131591796875,40.82212357516945,2017-07-10 00:00:00+00:00,,
EONET_2975,"C10830-Quesnel Area Command Fire, British Columbia, Canada",2017-08-16 00:00:00+00:00,False,1,BCWILDFIRE,2017,-124.3692,53.0287833,2017-07-10 00:00:00+00:00,,
EONET_3098,"C10970 - Kluskoil Lake 1 - Quesnel West Fire, British Columbia, Canada",2017-09-17 00:00:00+00:00,False,1,BCWILDFIRE,2017,-124.03775,53.2276333,2017-07-10 00:00:00+00:00,,
EONET_2928,"Roosters Comb Fire, NEVADA",2017-07-21 00:00:00+00:00,False,1,InciWeb,2017,-116.78666666667,40.941111111111,2017-07-09 21:00:00+00:00,,
EONET_2927,"Garza Fire, California",2017-07-21 00:00:00+00:00,False,1,CALFIRE,2017,-120.20014,35.93273,2017-07-09 15:10:00+00:00,,
EONET_2933,"Tongue River Complex Fire, MONTANA",2017-07-15 00:00:00+00:00,False,1,InciWeb,2017,-106.53305555556,45.301666666667,2017-07-09 08:30:00+00:00,,
EONET_2918,"Wildfire - NE of Yuba City, California - United States",2017-07-10 00:00:00+00:00,False,1,PDC,2017,-121.411348316,39.454851021,2017-07-08 19:00:00+00:00,,
EONET_2919,"Wildfire - N of Tucson, Arizona - United States",2017-07-10 00:00:00+00:00,False,1,PDC,2017,-110.736903955,32.9300493,2017-07-08 19:00:00+00:00,,
EONET_2925,"Parkfield Fire, California",2017-07-11 00:00:00+00:00,False,1,CALFIRE,2017,-120.57894,35.86949,2017-07-08 18:30:00+00:00,,
EONET_2930,"River Ranch Fire, NEVADA",2017-07-14 00:00:00+00:00,False,1,InciWeb,2017,-115.42888888889,40.996666666667,2017-07-08 17:30:00+00:00,,
EONET_2923,"Tabor Flats Fire, NEVADA",2017-07-24 00:00:00+00:00,False,1,InciWeb,2017,-115.27888888889,41.100833333333,2017-07-08 17:00:00+00:00,,
EONET_2956,"Magpie Fire, NORTH DAKOTA",2017-07-18 00:00:00+00:00,False,1,InciWeb,2017,-103.82638888889,47.318333333333,2017-07-08 15:15:00+00:00,,
EONET_2921,"Whittier Fire, CALIFORNIA",2017-08-07 00:00:00+00:00,False,1,InciWeb,2017,-119.9525,34.566944444444,2017-07-08 13:45:00+00:00,,
EONET_2922,"Ana Fire, OREGON",2017-07-18 00:00:00+00:00,False,1,InciWeb,2017,-120.77111111111,43.013055555556,2017-07-08 00:00:00+00:00,,
EONET_2946,"Precipice Creek Fire, British Columbia, Canada",2017-09-12 00:00:00+00:00,False,1,BCWILDFIRE,2017,-125.7817667,52.36795,2017-07-08 00:00:00+00:00,,
EONET_3087,"Chedakuz Creek Fire, British Columbia, Canada",2017-08-28 00:00:00+00:00,False,1,BCWILDFIRE,2017,-124.9045334,53.3981667,2017-07-08 00:00:00+00:00,,
EONET_3097,"Prouton Lakes-C30870-Central Area Command Fire, British Columbia, Canada",2017-09-07 00:00:00+00:00,False,1,BCWILDFIRE,2017,-121.76055,52.45015,2017-07-08 00:00:00+00:00,,
EONET_3119,"Hanceville-Riske Creek-C50647-Chilcotin Fire Zone, British Columbia, Canada",2017-09-15 00:00:00+00:00,False,1,BCWILDFIRE,2017,-123.1686333,51.944,2017-07-08 00:00:00+00:00,,
EONET_2916,"Roach Fire, ARIZONA",2017-07-24 00:00:00+00:00,False,1,InciWeb,2017,-110.72888888889,32.921666666667,2017-07-07 20:30:00+00:00,,
EONET_2929,"Draw Fire, NEVADA",2017-07-21 00:00:00+00:00,False,1,InciWeb,2017,-117.895,39.410833333333,2017-07-07 20:30:00+00:00,,
EONET_2931,"White Horse Fire, NEVADA",2017-07-13 00:00:00+00:00,False,1,InciWeb,2017,-114.31944444444,40.312222222222,2017-07-07 17:00:00+00:00,,
EONET_2920,"Brooklyn Fire, ARIZONA",2017-07-16 00:00:00+00:00,False,1,InciWeb,2017,-111.96333333333,34.148333333333,2017-07-07 15:30:00+00:00,,
EONET_2924,"Wall Fire, California",2017-07-17 00:00:00+00:00,False,1,CALFIRE,2017,-121.41222,39.45352,2017-07-07 14:52:00+00:00,,
EONET_2936,"Green Mountain Fire, British Columbia, Canada",2017-08-26 00:00:00+00:00,False,1,BCWILDFIRE,2017,-122.3718333,52.86705,2017-07-07 00:00:00+00:00,,
EONET_2937,"Sutherland Road Fire, British Columbia, Canada",2017-07-31 00:00:00+00:00,False,1,BCWILDFIRE,2017,-124.5565338,54.1640663,2017-07-07 00:00:00+00:00,,
EONET_2938,"10 Km NE of Princeton Fire, British Columbia, Canada",2017-07-31 00:00:00+00:00,False,1,BCWILDFIRE,2017,-120.57865,49.5722333,2017-07-07 00:00:00+00:00,,
EONET_2939,"150 Mile House Fire, British Columbia, Canada",2017-07-16 00:00:00+00:00,False,1,BCWILDFIRE,2017,-122.0039667,52.1332167,2017-07-07 00:00:00+00:00,,
EONET_2940,"Wildwood Fire, British Columbia, Canada",2017-09-06 00:00:00+00:00,False,1,BCWILDFIRE,2017,-122.05525,52.2086333,2017-07-07 00:00:00+00:00,,
EONET_2941,"Spokin Lake Rd Fire, British Columbia, Canada",2017-07-14 00:00:00+00:00,False,1,BCWILDFIRE,2017,-121.8334333,52.1764167,2017-07-07 00:00:00+00:00,,
EONET_2942,"White Lake Fire, British Columbia, Canada",2017-09-06 00:00:00+00:00,False,1,BCWILDFIRE,2017,-122.3403702,52.227951,2017-07-07 00:00:00+00:00,,
EONET_2944,"5 W of Tatelkuz Lake Fire, British Columbia, Canada",2017-08-10 00:00:00+00:00,False,1,BCWILDFIRE,2017,-124.7088013,53.2634163,2017-07-07 00:00:00+00:00,,
EONET_2945,"West of Dunn Lake and North of Dunn Lake Fire, British Columbia, Canada",2017-07-18 00:00:00+00:00,False,1,BCWILDFIRE,2017,-120.15815,51.43525,2017-07-07 00:00:00+00:00,,
EONET_2954,"Kleena Kleene Complex Fire, British Columbia, Canada",2017-09-20 00:00:00+00:00,False,1,BCWILDFIRE,2017,-125.0159833,51.9608333,2017-07-07 00:00:00+00:00,,
EONET_2955,"Thuya Lake Road Fire, British Columbia, Canada",2017-07-16 00:00:00+00:00,False,1,BCWILDFIRE,2017,-120.2542,51.3971,2017-07-07 00:00:00+00:00,,
EONET_2965,"Tautri Complex Fire, British Columbia, Canada",2017-09-22 00:00:00+00:00,False,1,BCWILDFIRE,2017,-123.08475,52.5034,2017-07-07 00:00:00+00:00,,
EONET_2966,"Castle Rock/Twan Lake South Fire, British Columbia, Canada",2017-07-21 00:00:00+00:00,False,1,BCWILDFIRE,2017,-122.5596167,52.4322667,2017-07-07 00:00:00+00:00,,
EONET_2967,"Castle Rock/Twan Lake-C10740-Quesnel Area Command Fire, British Columbia, Canada",2017-08-28 00:00:00+00:00,False,1,BCWILDFIRE,2017,-122.58685,52.4804,2017-07-07 00:00:00+00:00,,
EONET_2970,"Hawkes Creek-C20728-Central Area Command Fire, British Columbia, Canada",2017-07-16 00:00:00+00:00,False,1,BCWILDFIRE,2017,-122.0712833,52.2616,2017-07-07 00:00:00+00:00,,
EONET_2976,"Dunn Lake Fire, British Columbia, Canada",2017-07-31 00:00:00+00:00,False,1,BCWILDFIRE,2017,-120.1566167,51.46915,2017-07-07 00:00:00+00:00,,
EONET_3014,"C11014 - East of Toil Mtn - Quesnel West Fire, British Columbia, Canada",2017-07-31 00:00:00+00:00,False,1,BCWILDFIRE,2017,52.8108167,-124.02195,2017-07-07 00:00:00+00:00,,
EONET_3015,"C10812 - 4km North of Baezaeko River -Quesnel West Fire, British Columbia, Canada",2017-08-19 00:00:00+00:00,False,1,BCWILDFIRE,2017,-124.14305,52.9840333,2017-07-07 00:00:00+00:00,,
EONET_3082,"Chezacut Fire, British Columbia, Canada",2017-08-19 00:00:00+00:00,False,1,BCWILDFIRE,2017,-124.0267639,52.397934,2017-07-07 00:00:00+00:00,,
EONET_3086,"E of Lucas Lake Fire, British Columbia, Canada",2017-08-29 00:00:00+00:00,False,1,BCWILDFIRE,2017,-125.1123199,53.5001335,2017-07-07 00:00:00+00:00,,
EONET_2926,"Alamo Fire, California",2017-07-19 00:00:00+00:00,False,1,CALFIRE,2017,-120.3223,35.0179,2017-07-06 15:44:00+00:00,,
EONET_2908,"Gustafsen Fire, British Columbia, Canada",2017-07-30 00:00:00+00:00,False,1,BCWILDFIRE,2017,-121.3975167,51.6537833,2017-07-06 00:00:00+00:00,,
EONET_2909,"Winters Fire, California",2017-07-12 00:00:00+00:00,False,1,CALFIRE,2017,-122.0251,38.49521,2017-07-06 00:00:00+00:00,,
EONET_2910,"Quail Fire, California",2017-07-07 00:00:00+00:00,False,1,CALFIRE,2017,-119.08312,35.59904,2017-07-06 00:00:00+00:00,,
EONET_2943,"Ashcroft Reserve Fire, British Columbia, Canada",2017-10-02 00:00:00+00:00,False,1,BCWILDFIRE,2017,-121.3001333,50.70135,2017-07-06 00:00:00+00:00,,
EONET_2901,"Sheep Fire, ARIZONA",2017-07-12 00:00:00+00:00,False,1,InciWeb,2017,-109.48388888889,32.213888888889,2017-07-05 17:00:00+00:00,,
EONET_3236,"Indian Creek Fire, OREGON",2017-09-12 00:00:00+00:00,False,1,InciWeb,2017,-121.85222222222,45.581111111111,2017-07-04 17:36:00+00:00,,
EONET_2897,"Dry Gulch Fire, NEVADA",2017-07-14 00:00:00+00:00,False,1,InciWeb,2017,-114.19722222222,41.715555555556,2017-07-04 17:00:00+00:00,,
EONET_2904,"Tar Creek Fire, NEVADA",2017-07-21 00:00:00+00:00,False,1,InciWeb,2017,-117.04305555556,39.338333333333,2017-07-04 14:00:00+00:00,,
EONET_2895,"Limerick Fire, NEVADA",2017-07-11 00:00:00+00:00,False,1,InciWeb,2017,-118.27138888889,40.334722222222,2017-07-03 18:00:00+00:00,,
EONET_2896,"July Fire, MONTANA",2017-07-19 00:00:00+00:00,False,1,InciWeb,2017,-108.54805555556,47.908333333333,2017-07-03 16:30:00+00:00,,
EONET_2900,"Keystone Fire, WYOMING",2017-07-30 00:00:00+00:00,False,1,InciWeb,2017,-106.29444444444,41.174166666667,2017-07-03 14:00:00+00:00,,
EONET_2913,"Rio Tinto Fires, Huelva, Spain",2017-07-04 00:00:00+00:00,False,1,CEMS,2017,-6.645355224609375,37.71044257039145,2017-07-03 00:00:00+00:00,,
EONET_2917,"Gutzler Fire, COLORADO",2017-07-24 00:00:00+00:00,False,1,InciWeb,2017,-106.48277777778,39.878888888889,2017-07-02 13:00:00+00:00,,
EONET_2894,"Silver Dollar Fire, WASHINGTON",2017-07-07 00:00:00+00:00,False,1,InciWeb,2017,-119.88583333333,46.546388888889,2017-07-02 12:00:00+00:00,,
EONET_2907,"Derrick Fire, California",2017-07-06 00:00:00+00:00,False,1,CALFIRE,2017,-120.620791,36.269125,2017-07-02 00:00:00+00:00,,
EONET_2947,"Big Bend Creek Fire, British Columbia, Canada",2017-09-08 00:00:00+00:00,False,1,BCWILDFIRE,2017,-124.5113678,53.4902153,2017-07-01 00:00:00+00:00,,
EONET_3211,"Helena Fire, CALIFORNIA",2017-11-20 00:00:00+00:00,False,2,InciWeb|PDC,2017,-123.10166666667,40.778611111111,2017-08-30 17:15:00+00:00,,
EONET_3254,"Moose Peak  Fire, MONTANA",2017-10-01 00:00:00+00:00,False,1,InciWeb,2017,-115.30916666667,47.896111111111,2017-08-30 12:15:00+00:00,,
EONET_3253,"West Fork Fire, MONTANA",2017-09-27 00:00:00+00:00,False,1,InciWeb,2017,-115.64888888889,48.507777777778,2017-08-30 10:45:00+00:00,,
EONET_3217,"R-4 Fire, CALIFORNIA",2017-09-07 00:00:00+00:00,False,1,InciWeb,2017,-119.93388888889,40.696944444444,2017-08-30 08:30:00+00:00,,
EONET_3219,"Sartin Draw Fire, MONTANA",2017-09-09 00:00:00+00:00,False,1,InciWeb,2017,-106.00888888889,45.738611111111,2017-08-30 05:00:00+00:00,,
EONET_3238,"Uno Peak Fire, WASHINGTON",2017-10-15 00:00:00+00:00,False,1,InciWeb,2017,-120.37666666667,48.116944444444,2017-08-30 00:00:00+00:00,,
EONET_3247,"Green Ridge Complex Fire, MONTANA",2017-09-28 00:00:00+00:00,False,1,InciWeb,2017,-114.88472222222,45.821666666667,2017-08-30 00:00:00+00:00,,
EONET_3264,"Kenow Mountain - Modifiied Response Fire, British Columbia, Canada",2017-10-05 00:00:00+00:00,False,1,BCWILDFIRE,2017,-114.3025,49.0597333,2017-08-30 00:00:00+00:00,,
EONET_3269,"Soowa Mountain - Modified Response Fire, British Columbia, Canada",2017-10-02 00:00:00+00:00,False,1,BCWILDFIRE,2017,-114.9392667,49.21955,2017-08-30 00:00:00+00:00,,
EONET_3212,"Tohakum 2 Fire, NEVADA",2017-09-15 00:00:00+00:00,False,1,InciWeb,2017,-119.46361111111,40.272777777778,2017-08-29 19:30:00+00:00,,
EONET_3215,"Slinkard Fire, CALIFORNIA",2017-09-12 00:00:00+00:00,False,1,InciWeb,2017,-119.54972222222,38.611666666667,2017-08-29 18:00:00+00:00,,
EONET_3235,"Sheep Gap Fire, MONTANA",2017-09-04 00:00:00+00:00,False,1,InciWeb,2017,-115.06,47.495,2017-08-29 16:15:00+00:00,,
EONET_3206,"Mud Fire, CALIFORNIA",2017-09-06 00:00:00+00:00,False,1,InciWeb,2017,-120.2425,40.395277777778,2017-08-29 14:30:00+00:00,,
EONET_3204,"Piney Fire, NEVADA",2017-09-14 00:00:00+00:00,False,1,InciWeb,2017,-114.26666666667,41.966666666667,2017-08-29 13:30:00+00:00,,
EONET_3201,"Ponderosa Fire, California",2017-09-23 00:00:00+00:00,False,1,CALFIRE,2017,-121.30209,39.57701,2017-08-29 13:16:00+00:00,,
EONET_3214,"Railroad Fire, CALIFORNIA",2017-09-16 00:00:00+00:00,False,1,InciWeb,2017,-119.65138888889,37.434166666667,2017-08-29 13:00:00+00:00,,
EONET_3202,"Pier Fire, CALIFORNIA",2017-11-29 00:00:00+00:00,False,1,InciWeb,2017,-118.68527777778,36.165277777778,2017-08-29 02:30:00+00:00,,
EONET_3227,"Highway 200 Complex Fire, MONTANA",2017-10-03 00:00:00+00:00,False,1,InciWeb,2017,-115.28472222222,47.575,2017-08-28 00:00:00+00:00,,
EONET_3241,"Lamb Creek Fire, British Columbia, Canada",2017-10-05 00:00:00+00:00,False,1,BCWILDFIRE,2017,-115.878334,49.3166504,2017-08-28 00:00:00+00:00,,
EONET_3225,"Tungsten Fire, NEVADA",2017-09-15 00:00:00+00:00,False,1,InciWeb,2017,-117.70972222222,39.7525,2017-08-27 17:30:00+00:00,,
EONET_3228,"East Fork Fire, MONTANA",2017-09-25 00:00:00+00:00,False,1,InciWeb,2017,-109.62222222222,48.17,2017-08-27 15:30:00+00:00,,
EONET_3246,"Honeymoon Fire, IDAHO",2017-10-17 00:00:00+00:00,False,1,InciWeb,2017,-115.43388888889,44.575277777778,2017-08-27 14:00:00+00:00,,
EONET_3195,"Wildfire MB-NE311, Manitoba, Canada",2017-10-01 00:00:00+00:00,False,1,MBFIRE,2017,-96.8986,53.5569,2017-08-27 00:00:00+00:00,,
EONET_3200,"Wildfire MB-NE312, Manitoba, Canada",2017-10-03 00:00:00+00:00,False,1,MBFIRE,2017,-94.3756,56.4681,2017-08-27 00:00:00+00:00,,
EONET_3213,"Horse Prairie Fire, OREGON",2017-09-08 00:00:00+00:00,False,1,InciWeb,2017,-123.60472222222,42.935277777778,2017-08-26 15:30:00+00:00,,
EONET_3185,"Mendenhall Fire, MONTANA",2017-09-03 00:00:00+00:00,False,1,InciWeb,2017,-110.17722222222,45.653888888889,2017-08-26 00:00:00+00:00,,
EONET_3299,"Wildfire MB-NE308, Manitoba, Canada",2017-09-05 00:00:00+00:00,False,1,MBFIRE,2017,-93.8347,58.4244,2017-08-26 00:00:00+00:00,,
EONET_3258,"Strawberry Fire, MONTANA",2017-10-07 00:00:00+00:00,False,1,InciWeb,2017,-113.015,48.089166666667,2017-08-25 12:00:00+00:00,,
EONET_3197,"Conrow Fire, MONTANA",2017-09-19 00:00:00+00:00,False,1,InciWeb,2017,-111.98888888889,45.933611111111,2017-08-24 22:30:00+00:00,,
EONET_3182,"I-5 Fire, California",2017-08-26 00:00:00+00:00,False,1,CALFIRE,2017,-120.05404,36.05187,2017-08-24 18:13:00+00:00,,
EONET_3179,"Wildfire MB-NE298, Manitoba, Canada",2017-09-20 00:00:00+00:00,False,1,MBFIRE,2017,-94.7758,55.3317,2017-08-24 00:00:00+00:00,,
EONET_3181,"Philpott Road - Hwy 33 Fire, British Columbia, Canada",2017-09-09 00:00:00+00:00,False,1,BCWILDFIRE,2017,-119.195015,49.8637848,2017-08-24 00:00:00+00:00,,
EONET_3207,"Bearskin Fire, IDAHO",2017-10-12 00:00:00+00:00,False,1,InciWeb,2017,-115.52722222222,44.388333333333,2017-08-23 19:30:00+00:00,,
EONET_3203,"Stag Fire, NEVADA",2017-09-01 00:00:00+00:00,False,1,InciWeb,2017,-115.505,41.419722222222,2017-08-23 17:15:00+00:00,,
EONET_3174,"Maurer Mountain Fire, MONTANA",2017-08-30 00:00:00+00:00,False,1,InciWeb,2017,-112.76388888889,44.964166666667,2017-08-23 13:45:00+00:00,,
EONET_3167,"Wildfire - NW of Centralia, Washington - United States",2017-09-02 00:00:00+00:00,False,1,PDC,2017,-123.01700007,46.821128321,2017-08-22 19:00:00+00:00,,
EONET_3178,"Lyons Fire, NEVADA",2017-08-29 00:00:00+00:00,False,1,InciWeb,2017,-119.45638888889,39.105277777778,2017-08-22 15:30:00+00:00,,
EONET_3259,"Linklater Creek Fire, British Columbia, Canada",2017-10-02 00:00:00+00:00,False,1,BCWILDFIRE,2017,-115.3666687,49.0,2017-08-22 00:00:00+00:00,,
EONET_3180,"Daba, Borjomi, Georgia Wildfire",2017-08-25 00:00:00+00:00,False,1,CEMS,2017,43.4453,41.8228,2017-08-20 00:00:00+00:00,,
EONET_3243,"Big Red Fire, COLORADO",2017-11-09 00:00:00+00:00,False,1,InciWeb,2017,-106.88388888889,40.925277777778,2017-08-19 12:00:00+00:00,,
EONET_3161,"Wildfire MB-NW071, Manitoba, Canada",2017-09-28 00:00:00+00:00,False,1,MBFIRE,2017,-100.0411,55.1344,2017-08-18 00:00:00+00:00,,
EONET_3189,"Wildfire MB-EA066, Manitoba, Canada",2017-09-23 00:00:00+00:00,False,1,MBFIRE,2017,-95.7822,52.8256,2017-08-17 00:00:00+00:00,,
EONET_3222,"Wildfire MB-NE288, Manitoba, Canada",2017-09-27 00:00:00+00:00,False,1,MBFIRE,2017,-95.2836,53.9728,2017-08-17 00:00:00+00:00,,
EONET_3194,"Wildfire MB-NE278, Manitoba, Canada",2017-10-03 00:00:00+00:00,False,1,MBFIRE,2017,-99.6522,57.9267,2017-08-16 00:00:00+00:00,,
EONET_3220,"Scalp Fire, MONTANA",2017-10-07 00:00:00+00:00,False,1,InciWeb,2017,-113.07138888889,47.956666666667,2017-08-15 19:00:00+00:00,,
EONET_3144,"Milli Fire, OREGON",2017-10-01 00:00:00+00:00,False,1,InciWeb,2017,-121.74305555556,44.256666666667,2017-08-15 17:00:00+00:00,,
EONET_3132,"Eclipse Complex Fire, CALIFORNIA",2017-10-09 00:00:00+00:00,False,1,InciWeb,2017,-123.47472222222,41.786388888889,2017-08-15 07:55:00+00:00,,
EONET_3166,"Wildfire MB-NE269, Manitoba, Canada",2017-10-03 00:00:00+00:00,False,1,MBFIRE,2017,-95.0114,54.0711,2017-08-15 00:00:00+00:00,,
EONET_3146,"Miller Complex Fire, OREGON",2017-09-22 00:00:00+00:00,False,1,InciWeb,2017,-123.21777777778,42.039166666667,2017-08-14 14:00:00+00:00,,
EONET_3139,"Wildfire MB-NE256, Manitoba, Canada",2017-10-01 00:00:00+00:00,False,1,MBFIRE,2017,-100.3008,56.9594,2017-08-14 00:00:00+00:00,,
EONET_3172,"Wildfire MB-NE264, Manitoba, Canada",2017-09-04 00:00:00+00:00,False,1,MBFIRE,2017,-97.0006,53.7853,2017-08-14 00:00:00+00:00,,
EONET_3199,"Wildfire MB-NE267, Manitoba, Canada",2017-09-25 00:00:00+00:00,False,1,MBFIRE,2017,-96.4094,54.2111,2017-08-14 00:00:00+00:00,,
EONET_3143,"Salmon August Complex Fire, CALIFORNIA",2017-10-03 00:00:00+00:00,False,1,InciWeb,2017,-123.08972222222,41.455555555556,2017-08-13 19:38:00+00:00,,
EONET_3229,"Reef Fire, MONTANA",2017-10-07 00:00:00+00:00,False,1,InciWeb,2017,-113.40166666667,47.3475,2017-08-13 17:45:00+00:00,,
EONET_3114,"Blaine Fire, California",2017-08-16 00:00:00+00:00,False,1,CALFIRE,2017,-117.30819,33.98212,2017-08-13 16:10:00+00:00,,
EONET_3147,"Chute Creek Fire, IDAHO",2017-09-20 00:00:00+00:00,False,1,InciWeb,2017,-114.54722222222,46.246111111111,2017-08-13 09:00:00+00:00,,
EONET_3130,"South Fork Fire, CALIFORNIA",2017-11-27 00:00:00+00:00,False,1,InciWeb,2017,-119.59833333333,37.5375,2017-08-13 02:30:00+00:00,,
EONET_3109,"Pilot Valey Fire, NEVADA",2017-08-17 00:00:00+00:00,False,1,InciWeb,2017,-114.15083333333,41.151111111111,2017-08-12 17:00:00+00:00,,
EONET_3135,"Wildfire MB-NE230, Manitoba, Canada",2017-09-20 00:00:00+00:00,False,1,MBFIRE,2017,-97.7992,56.8914,2017-08-12 00:00:00+00:00,,
EONET_3160,"Wildfire MB-NE242, Manitoba, Canada",2017-10-01 00:00:00+00:00,False,1,MBFIRE,2017,-102.0,56.4997,2017-08-12 00:00:00+00:00,,
EONET_3171,"Wildfire MB-NE241, Manitoba, Canada",2017-09-04 00:00:00+00:00,False,1,MBFIRE,2017,-96.3233,53.7678,2017-08-12 00:00:00+00:00,,
EONET_3193,"Wildfire MB-NE229, Manitoba, Canada",2017-09-21 00:00:00+00:00,False,1,MBFIRE,2017,-99.6897,57.5669,2017-08-12 00:00:00+00:00,,
EONET_3248,"Adair Peak Fire, MONTANA",2017-10-04 00:00:00+00:00,False,1,InciWeb,2017,-114.03972222222,48.758055555556,2017-08-12 00:00:00+00:00,,
EONET_3234,"Jack Creek Fire, WASHINGTON",2017-10-15 00:00:00+00:00,False,1,InciWeb,2017,-120.95944444444,47.513888888889,2017-08-11 21:15:00+00:00,,
EONET_3169,"Jolly Mountain Fire, WASHINGTON",2017-10-15 00:00:00+00:00,False,1,InciWeb,2017,-121.01861111111,47.376666666667,2017-08-11 18:45:00+00:00,,
EONET_3205,"Crucifixion Creek Fire, MONTANA",2017-10-13 00:00:00+00:00,False,1,InciWeb,2017,-113.09444444444,48.17,2017-08-11 13:00:00+00:00,,
EONET_3188,"Caribou Fire, MONTANA",2017-11-02 00:00:00+00:00,False,1,InciWeb,2017,-115.44111111111,48.973055555556,2017-08-11 10:45:00+00:00,,
EONET_3129,"Umpqua North Complex Fire, OREGON",2017-10-16 00:00:00+00:00,False,1,InciWeb,2017,-122.64138888889,43.295555555556,2017-08-11 10:30:00+00:00,,
EONET_3187,"Tank Hollow  Fire, UTAH",2017-09-16 00:00:00+00:00,False,1,InciWeb,2017,-111.31583333333,39.994166666667,2017-08-11 09:45:00+00:00,,
EONET_3145,"Norse Peak Fire, WASHINGTON",2017-10-01 00:00:00+00:00,False,1,InciWeb,2017,-121.37805555556,46.96,2017-08-11 00:00:00+00:00,,
EONET_3159,"Wildfire MB-NE211, Manitoba, Canada",2017-08-23 00:00:00+00:00,False,1,MBFIRE,2017,-95.6789,54.8772,2017-08-11 00:00:00+00:00,,
EONET_3190,"Wildfire MB-NE209, Manitoba, Canada",2017-10-01 00:00:00+00:00,False,1,MBFIRE,2017,-96.7639,54.4628,2017-08-11 00:00:00+00:00,,
EONET_3191,"Wildfire MB-NE226, Manitoba, Canada",2017-09-04 00:00:00+00:00,False,1,MBFIRE,2017,-96.9889,53.4267,2017-08-11 00:00:00+00:00,,
EONET_3192,"Wildfire MB-NE227, Manitoba, Canada",2017-09-04 00:00:00+00:00,False,1,MBFIRE,2017,-97.0056,53.3917,2017-08-11 00:00:00+00:00,,
EONET_3164,"Sprague Fire, MONTANA",2017-10-01 00:00:00+00:00,False,1,InciWeb,2017,-113.82861111111,48.607222222222,2017-08-10 20:30:00+00:00,,
EONET_3110,"Jones Fire, OREGON",2017-10-02 00:00:00+00:00,False,1,InciWeb,2017,-122.57472222222,44.003055555556,2017-08-10 18:51:00+00:00,,
EONET_3226,"Nash Fire, OREGON",2017-09-29 00:00:00+00:00,False,1,InciWeb,2017,-121.87777777778,44.068333333333,2017-08-10 16:38:00+00:00,,
EONET_3183,"Horse Creek Complex Fire, OREGON",2017-10-12 00:00:00+00:00,False,1,InciWeb,2017,-122.01388888889,44.093888888889,2017-08-10 15:15:00+00:00,,
EONET_3163,"North Pelican Fire, OREGON",2017-09-22 00:00:00+00:00,False,1,InciWeb,2017,-122.14416666667,42.542222222222,2017-08-10 11:00:00+00:00,,
EONET_3152,"Zakynthos, Greece Fires",2017-08-16 00:00:00+00:00,False,1,CEMS,2017,20.775146484375,37.77505678240512,2017-08-10 00:00:00+00:00,,
EONET_3173,"Staley Fire, OREGON",2017-09-15 00:00:00+00:00,False,1,InciWeb,2017,-122.35638888889,43.400833333333,2017-08-09 21:00:00+00:00,,
EONET_3111,"Ruth Complex Fire, CALIFORNIA",2017-08-26 00:00:00+00:00,False,1,InciWeb,2017,-123.35083333333,40.209166666667,2017-08-09 09:45:00+00:00,,
EONET_3134,"Wildfire MB-NE196, Manitoba, Canada",2017-08-27 00:00:00+00:00,False,1,MBFIRE,2017,-97.0814,53.86,2017-08-09 00:00:00+00:00,,
EONET_3136,"McCormick Creek Fire, British Columbia, Canada",2017-09-20 00:00:00+00:00,False,1,BCWILDFIRE,2017,-117.3498,49.0267333,2017-08-09 00:00:00+00:00,,
EONET_3154,Central Portugal Fires,2017-08-26 00:00:00+00:00,False,0,,2017,,,2017-08-09 00:00:00+00:00,,
EONET_3108,"Nena Springs Fire, OREGON",2017-08-23 00:00:00+00:00,False,1,InciWeb,2017,-121.305,45.047777777778,2017-08-08 17:30:00+00:00,,
EONET_3116,"Falcon Complex Fire, OREGON",2017-10-16 00:00:00+00:00,False,1,InciWeb,2017,-122.58777777778,43.011666666667,2017-08-08 17:00:00+00:00,,
EONET_3093,"Dune Fire, NEVADA",2017-08-09 00:00:00+00:00,False,1,InciWeb,2017,-118.08666666667,41.115,2017-08-08 01:30:00+00:00,,
EONET_3107,"Bridge Creek Fire, WASHINGTON",2017-10-20 00:00:00+00:00,False,1,InciWeb,2017,-118.58333333333,48.25,2017-08-08 00:00:00+00:00,,
EONET_3267,"Quinn Creek- Modified Response Fire, British Columbia, Canada",2017-10-02 00:00:00+00:00,False,1,BCWILDFIRE,2017,-115.319,49.8714667,2017-08-08 00:00:00+00:00,,
EONET_3095,"Gibralter Ridge Fire, MONTANA",2017-11-13 00:00:00+00:00,False,2,InciWeb|PDC,2017,-114.85722222222,48.857222222222,2017-08-07 21:00:00+00:00,,
EONET_3275,"Buck Fire, IDAHO",2017-09-25 00:00:00+00:00,False,1,InciWeb,2017,-115.53138888889,47.0825,2017-08-07 18:45:00+00:00,,
EONET_3165,"Young Fire, CALIFORNIA",2017-10-15 00:00:00+00:00,False,1,InciWeb,2017,-123.67583333333,41.853055555556,2017-08-07 17:45:00+00:00,,
EONET_3127,"Wildfire MB-NE178, Manitoba, Canada",2017-09-12 00:00:00+00:00,False,1,MBFIRE,2017,-97.7367,57.2739,2017-08-07 00:00:00+00:00,,
EONET_3128,"Wildfire MB-NW051, Manitoba, Canada",2017-09-08 00:00:00+00:00,False,1,MBFIRE,2017,-101.8789,54.9411,2017-08-07 00:00:00+00:00,,
EONET_3131,"Wildfire MB-NE185, Manitoba, Canada",2017-09-25 00:00:00+00:00,False,1,MBFIRE,2017,-94.8122,56.7631,2017-08-07 00:00:00+00:00,,
EONET_3142,"Chilcoot Fire, California",2017-08-17 00:00:00+00:00,False,1,CALFIRE,2017,-120.1397,39.75371,2017-08-06 15:32:00+00:00,,
EONET_3133,"Wildfire MB-NE175, Manitoba, Canada",2017-08-22 00:00:00+00:00,False,1,MBFIRE,2017,-96.98,54.0836,2017-08-06 00:00:00+00:00,,
EONET_3170,"Wildfire MB-NE174, Manitoba, Canada",2017-10-01 00:00:00+00:00,False,1,MBFIRE,2017,-96.8836,54.0336,2017-08-06 00:00:00+00:00,,
EONET_3120,"Wildfire MB-EA051, Manitoba, Canada",2017-10-05 00:00:00+00:00,False,1,MBFIRE,2017,-97.2586,52.8831,2017-08-05 00:00:00+00:00,,
EONET_3125,"Wildfire MB-NE156, Manitoba, Canada",2017-08-10 00:00:00+00:00,False,1,MBFIRE,2017,-101.6978,56.4672,2017-08-05 00:00:00+00:00,,
EONET_3126,"Wildfire MB-NE157, Manitoba, Canada",2017-08-24 00:00:00+00:00,False,1,MBFIRE,2017,-97.8419,56.5239,2017-08-05 00:00:00+00:00,,
EONET_3138,"Wildfire MB-NE166, Manitoba, Canada",2017-10-01 00:00:00+00:00,False,1,MBFIRE,2017,-101.1531,56.3922,2017-08-05 00:00:00+00:00,,
EONET_3198,"Wildfire MB-NE160, Manitoba, Canada",2017-10-01 00:00:00+00:00,False,1,MBFIRE,2017,-96.2372,54.1539,2017-08-05 00:00:00+00:00,,
EONET_3088,"Powerline Fire, IDAHO",2017-08-13 00:00:00+00:00,False,1,InciWeb,2017,-112.72472222222,42.706111111111,2017-08-04 20:30:00+00:00,,
EONET_3058,"Rattlesnake Point Fire, IDAHO",2017-10-01 00:00:00+00:00,False,1,InciWeb,2017,-115.1325,45.554444444444,2017-08-04 17:45:00+00:00,,
EONET_3137,"Rebel Fire, OREGON",2017-10-09 00:00:00+00:00,False,1,InciWeb,2017,-122.17027777778,44.009166666667,2017-08-04 13:30:00+00:00,,
EONET_3115,"Pole Creek Fire, WYOMING",2017-10-12 00:00:00+00:00,False,1,InciWeb,2017,-110.71416666667,42.185277777778,2017-08-04 13:15:00+00:00,,
EONET_3124,"Wildfire MB-NE149, Manitoba, Canada",2017-10-02 00:00:00+00:00,False,1,MBFIRE,2017,-101.8594,57.0531,2017-08-04 00:00:00+00:00,,
EONET_3184,"Wildfire MB-EA046, Manitoba, Canada",2017-09-23 00:00:00+00:00,False,1,MBFIRE,2017,-96.3472,52.6997,2017-08-04 00:00:00+00:00,,
EONET_3069,"Parker 2 Fire, CALIFORNIA",2017-09-08 00:00:00+00:00,False,1,InciWeb,2017,-120.32138888889,41.465833333333,2017-08-03 14:00:00+00:00,,
EONET_3062,"Wildfire - Santa Cruz, Bolivia",2017-08-17 00:00:00+00:00,False,1,PDC,2017,-61.12499,-17.00014,2017-08-03 08:57:00+00:00,,
EONET_3076,Southern Albania Wildfires,2017-08-20 00:00:00+00:00,False,1,CEMS,2017,19.55,40.24,2017-08-03 00:00:00+00:00,,
EONET_3070,"Lava Flow Fire, IDAHO",2017-08-07 00:00:00+00:00,False,1,InciWeb,2017,-112.86555555556,43.352777777778,2017-08-02 19:00:00+00:00,,
EONET_3112,"Indian Fire, CALIFORNIA",2017-08-31 00:00:00+00:00,False,1,InciWeb,2017,-118.29638888889,36.256666666667,2017-08-02 18:00:00+00:00,,
EONET_3251,"Buck Lake Fire, IDAHO",2017-12-01 00:00:00+00:00,False,1,InciWeb,2017,-115.10805555556,45.978055555556,2017-08-02 17:00:00+00:00,,
EONET_3085,"Cinder Butte Fire, OREGON",2017-08-08 00:00:00+00:00,False,1,InciWeb,2017,-119.94,43.5775,2017-08-02 12:55:00+00:00,,
EONET_3084,"Tappan Fire, IDAHO",2017-09-21 00:00:00+00:00,False,1,InciWeb,2017,-114.72861111111,44.883055555556,2017-08-01 19:00:00+00:00,,
EONET_3066,"Delano Fire, NEVADA",2017-08-17 00:00:00+00:00,False,1,InciWeb,2017,-114.23694444444,41.621111111111,2017-08-01 16:15:00+00:00,,
EONET_3083,"Hanover Fire, IDAHO",2017-09-18 00:00:00+00:00,False,1,InciWeb,2017,-115.96694444444,45.548333333333,2017-08-01 12:30:00+00:00,,
EONET_3117,"Empire Fire, CALIFORNIA",2017-08-26 00:00:00+00:00,False,1,InciWeb,2017,-119.61833333333,37.644444444444,2017-08-01 08:45:00+00:00,,
EONET_3075,Greenland Wildfire,2017-08-21 00:00:00+00:00,False,2,CEMS|EO,2017,-51.5026,67.8602,2017-08-01 00:00:00+00:00,,
EONET_3158,"842 Fire, COLORADO",2017-08-24 00:00:00+00:00,False,1,InciWeb,2017,-107.37444444444,37.175,2017-08-01 00:00:00+00:00,,
EONET_3297,"Canyon Fire, CALIFORNIA",2017-10-04 00:00:00+00:00,False,3,CALFIRE|InciWeb|PDC,2017,-117.66972222222,33.87,2017-09-25 13:00:00+00:00,,
EONET_3305,"Lion Fire, CALIFORNIA",2017-11-29 00:00:00+00:00,False,1,InciWeb,2017,-118.48555555556,36.271388888889,2017-09-24 17:00:00+00:00,,
EONET_3304,"Borjormi, Georgia Wildfire",2017-09-26 00:00:00+00:00,False,1,CEMS,2017,43.5,41.8,2017-09-22 00:00:00+00:00,,
EONET_3291,Wildfires - Canary Islands,2017-09-21 00:00:00+00:00,False,1,PDC,2017,-15.55016,28.05294,2017-09-19 00:00:00+00:00,,
EONET_3294,"Deer Creek Fire, NEW MEXICO",2017-09-26 00:00:00+00:00,False,1,InciWeb,2017,-106.79805555556,35.730833333333,2017-09-15 03:30:00+00:00,,
EONET_3283,"Buck Fire (CA), CALIFORNIA",2017-09-25 00:00:00+00:00,False,1,InciWeb,2017,-123.03555555556,40.2275,2017-09-12 18:45:00+00:00,,
EONET_3274,"Cottonwood Fire, NEVADA",2017-09-29 00:00:00+00:00,False,1,InciWeb,2017,-116.42361111111,40.258333333333,2017-09-12 18:30:00+00:00,,
EONET_3302,"Palmer Fire, NEW MEXICO",2017-10-02 00:00:00+00:00,False,1,InciWeb,2017,-105.55111111111,35.367777777778,2017-09-12 17:30:00+00:00,,
EONET_3272,"Rankin Fire, SOUTH DAKOTA",2017-09-29 00:00:00+00:00,False,1,InciWeb,2017,-103.45472222222,43.6225,2017-09-11 15:00:00+00:00,,
EONET_3273,"Blacktail Fire, MONTANA",2017-09-21 00:00:00+00:00,False,1,InciWeb,2017,-110.32444444444,46.229722222222,2017-09-10 14:00:00+00:00,,
EONET_3265,"Pine Tree Fire, COLORADO",2017-09-29 00:00:00+00:00,False,1,InciWeb,2017,-108.11722222222,40.344166666667,2017-09-09 15:59:00+00:00,,
EONET_3284,"Desolation Fire, OREGON",2017-09-26 00:00:00+00:00,False,1,InciWeb,2017,-120.4975,44.479444444444,2017-09-09 11:45:00+00:00,,
EONET_3277,"Andalusia, Spain Wildfire",2017-09-13 00:00:00+00:00,False,1,CEMS,2017,,,2017-09-09 00:00:00+00:00,,
EONET_3280,"Coolwater Complex Fire, IDAHO",2017-09-21 00:00:00+00:00,False,1,InciWeb,2017,-115.39138888889,46.189722222222,2017-09-07 14:30:00+00:00,,
EONET_3279,"Sawmill Creek Fire, WASHINGTON",2017-09-23 00:00:00+00:00,False,1,InciWeb,2017,-121.43583333333,47.163055555556,2017-09-04 19:30:00+00:00,,
EONET_3252,"Deep Creek Fire, COLORADO",2017-09-14 00:00:00+00:00,False,1,InciWeb,2017,-107.10972222222,40.599444444444,2017-09-04 11:15:00+00:00,,
EONET_3292,"Creek Fire, CALIFORNIA",2017-11-20 00:00:00+00:00,False,1,InciWeb,2017,-119.94111111111,38.12,2017-09-03 19:22:00+00:00,,
EONET_3249,"Mission Fire, CALIFORNIA",2017-09-21 00:00:00+00:00,False,2,CALFIRE|InciWeb,2017,-119.48277777778,37.212777777778,2017-09-03 13:00:00+00:00,,
EONET_3242,"Eagle Creek Fire, OREGON",2017-11-30 00:00:00+00:00,False,2,InciWeb|PDC,2017,-121.90416666667,45.630277777778,2017-09-02 16:00:00+00:00,,
EONET_3541,Eagle Creek Fire,2018-08-02 00:00:00+00:00,False,1,InciWeb,2017,-121.904,45.63,2017-09-02 16:00:00+00:00,,
EONET_3270,"Strychnine Fire, IDAHO",2017-10-01 00:00:00+00:00,False,1,InciWeb,2017,-116.62666666667,46.956111111111,2017-09-02 15:30:00+00:00,,
EONET_3271,"Weasel Fire, MONTANA",2017-10-06 00:00:00+00:00,False,2,InciWeb|PDC,2017,-114.72972222222,48.954166666667,2017-09-02 13:46:00+00:00,,
EONET_3224,"Palmer Fire, California",2017-09-07 00:00:00+00:00,False,1,CALFIRE,2017,-117.09984,33.97471,2017-09-02 13:33:00+00:00,,
EONET_3233,"Finlay Creek Fire, British Columbia, Canada",2017-09-19 00:00:00+00:00,False,1,BCWILDFIRE,2017,-119.8262329,49.7333832,2017-09-02 00:00:00+00:00,,
EONET_3237,"Caldwell Fire, CALIFORNIA",2017-09-12 00:00:00+00:00,False,1,InciWeb,2017,-118.40555555556,35.759722222222,2017-09-01 14:37:00+00:00,,
EONET_3223,"La Tuna Fire, California",2017-09-05 00:00:00+00:00,False,1,PDC,2017,-118.31641165,34.223685531,2017-09-01 00:00:00+00:00,,
EONET_3345,"Wildfire - SE of Cedar City, Utah - United States",2017-11-02 00:00:00+00:00,False,1,PDC,2017,-112.682674661,37.50696005,2017-10-31 19:00:00+00:00,,
EONET_3346,"Wildfire - S of Winslow, Arizona - United States",2017-11-02 00:00:00+00:00,False,1,PDC,2017,-110.786574051,34.33226819,2017-10-31 19:00:00+00:00,,
EONET_3338,"Wildfire - E of Vancouver, Washington - United States",2017-11-01 00:00:00+00:00,False,1,PDC,2017,-121.43400016,45.804158149,2017-10-26 19:00:00+00:00,,
EONET_3339,"Wildfire - S of Winslow, Arizona - United States",2017-10-27 00:00:00+00:00,False,1,PDC,2017,-110.795570081,34.342259484,2017-10-26 19:00:00+00:00,,
EONET_3341,"Wildfire - S of Riverside, California - United States",2017-10-28 00:00:00+00:00,False,1,PDC,2017,-117.314103711,33.58837109,2017-10-26 00:00:00+00:00,,
EONET_3333,Northern Corsica Wildfires,2017-10-23 00:00:00+00:00,False,1,CEMS,2017,9.076704467773425,42.570908623949,2017-10-22 00:00:00+00:00,,
EONET_3349,"Piemonte, Italy Wildfires",2017-11-02 00:00:00+00:00,False,1,CEMS,2017,,,2017-10-22 00:00:00+00:00,,
EONET_3332,"Transfer Station Fire , ARIZONA",2017-10-29 00:00:00+00:00,False,1,InciWeb,2017,-109.36638888889,34.103333333333,2017-10-19 12:30:00+00:00,,
EONET_3355,"Buffalo Fire, California",2017-11-14 00:00:00+00:00,False,1,CALFIRE,2017,-117.402445,33.402411,2017-10-17 10:19:00+00:00,,
EONET_3328,Central Portugal Wildfires,2017-10-22 00:00:00+00:00,False,2,CEMS|PDC,2017,-7.689599245,40.58966762,2017-10-15 00:00:00+00:00,,
EONET_3329,"Oakmont Fire (Central LNU Complex), California",2017-10-29 00:00:00+00:00,False,1,CALFIRE,2017,-122.58152,38.46123,2017-10-14 20:35:00+00:00,,
EONET_3310,"Wildfire - NE of Irvine, California - United States",2017-10-11 00:00:00+00:00,False,1,PDC,2017,-117.734320998,33.822813747,2017-10-09 19:00:00+00:00,,
EONET_3324,"37 Fire, California",2017-10-12 00:00:00+00:00,False,1,CALFIRE,2017,-122.47301,38.14242,2017-10-09 14:00:00+00:00,,
EONET_3312,"Canyon 2 Fire, California",2017-10-17 00:00:00+00:00,False,1,CALFIRE,2017,-117.70975,33.87041,2017-10-09 09:51:00+00:00,,
EONET_3318,"Pocket Fire (Central LNU Complex), California",2017-11-06 00:00:00+00:00,False,1,CALFIRE,2017,-122.90939,38.76549,2017-10-09 09:51:00+00:00,,
EONET_3321,"La Porte Fire (Wind Complex), California",2017-10-28 00:00:00+00:00,False,2,CALFIRE|PDC,2017,-121.40613,39.39455,2017-10-09 00:57:00+00:00,,
EONET_3330,"Sulphur Fire (Mendocino Lake Complex), California",2017-10-27 00:00:00+00:00,False,1,CALFIRE,2017,-122.64543,39.01387,2017-10-08 23:59:00+00:00,,
EONET_3314,"Partrick Fire (Southern LNU Complex), California",2017-10-29 00:00:00+00:00,False,1,CALFIRE,2017,-122.39052,38.31802,2017-10-08 23:48:00+00:00,,
EONET_3323,"Cascade Fire (Wind Complex), California",2017-10-28 00:00:00+00:00,False,1,CALFIRE,2017,-121.4021,39.32198,2017-10-08 23:03:00+00:00,,
EONET_3317,"Redwood / Potter Fires (Mendocino Lake Complex), California",2017-10-28 00:00:00+00:00,False,1,CALFIRE,2017,-123.16635,39.24873,2017-10-08 22:36:00+00:00,,
EONET_3315,"Nuns Fire (Southern LNU Complex), California",2017-11-06 00:00:00+00:00,False,1,CALFIRE,2017,-122.5209,38.4041,2017-10-08 22:00:00+00:00,,
EONET_3319,"Tubbs Fire (Central LNU Complex), California",2017-11-06 00:00:00+00:00,False,2,CALFIRE|PDC,2017,-122.62879,38.60895,2017-10-08 21:45:00+00:00,,
EONET_3320,"Cherokee Fire, California",2017-10-17 00:00:00+00:00,False,1,CALFIRE,2017,-121.52966,39.62496,2017-10-08 21:45:00+00:00,,
EONET_3316,"Atlas Fire (Southern LNU Complex), California",2017-10-29 00:00:00+00:00,False,1,CALFIRE,2017,-122.24367,38.39206,2017-10-08 21:20:00+00:00,,
EONET_3313,"33 Springs Fire, ARIZONA",2017-11-15 00:00:00+00:00,False,1,InciWeb,2017,-111.08722222222,34.477777777778,2017-10-06 12:15:00+00:00,,
EONET_3367,"Tom&#039;s Mill Fire, ARKANSAS",2017-11-30 00:00:00+00:00,False,1,InciWeb,2017,-93.251388888889,35.558333333333,2017-11-25 14:45:00+00:00,,
EONET_3392,"Wildfire - Villa Alemana, Chile",2017-12-26 00:00:00+00:00,False,1,PDC,2017,-71.37864,-33.04427,2017-12-20 17:12:00+00:00,,
EONET_3377,"Lilac Fire, California",2017-12-18 00:00:00+00:00,False,1,CALFIRE,2017,-117.163,33.3237,2017-12-07 11:15:00+00:00,,
EONET_3373,"Rye Fire, California",2017-12-14 00:00:00+00:00,False,1,CALFIRE,2017,-118.58188,34.45283,2017-12-05 11:31:00+00:00,,
EONET_3375,"Creek Fire, CALIFORNIA",2017-12-10 00:00:00+00:00,False,2,CALFIRE|InciWeb,2017,-118.33805555556,34.334166666667,2017-12-05 03:44:00+00:00,,
EONET_3376,"Thomas Fire, CALIFORNIA",2017-12-31 00:00:00+00:00,False,4,CALFIRE|EO|InciWeb|PDC,2017,-119.10027777778,34.429166666667,2017-12-04 18:30:00+00:00,,
EONET_3408,"Pilliga Forest Wildfire, Australia",2018-01-23 00:00:00+00:00,False,1,EO,2018,149.3257,-30.7533,2018-01-17 00:00:00+00:00,,
EONET_3396,Northern Corsica Forest Fires,2018-01-03 00:00:00+00:00,False,1,CEMS,2018,9.437255859375,42.3747783611142,2018-01-01 00:00:00+00:00,,
EONET_3436,Southeast Asia Agricultural Burning,2018-03-31 00:00:00+00:00,False,1,EO,2018,,,2018-01-01 00:00:00+00:00,,
EONET_3428,"Pleasant Fire, California",2018-02-25 00:00:00+00:00,False,1,CALFIRE,2018,-118.50235,37.40208,2018-02-18 14:12:00+00:00,,
EONET_3422,"Knob Hill Fire, ARIZONA",2018-02-15 00:00:00+00:00,False,1,InciWeb,2018,-110.05972222222,31.920277777778,2018-02-10 11:45:00+00:00,,
EONET_3446,"Wildfire - N of Pueblo, Colorado - United States",2018-03-17 00:00:00+00:00,False,1,PDC,2018,-104.71395232,38.51941719,2018-03-15 00:00:00+00:00,,
EONET_3447,"Cumbee Fire, SOUTH CAROLINA",2018-04-02 00:00:00+00:00,False,1,InciWeb,2018,-79.685,33.088888888889,2018-03-14 14:30:00+00:00,,
EONET_3444,"Clear Lake Fire, FLORIDA",2018-03-23 00:00:00+00:00,False,1,InciWeb,2018,-84.428333333333,30.338055555556,2018-03-09 16:39:00+00:00,,
EONET_3488,McDannald Fire,2018-05-25 00:00:00+00:00,False,1,InciWeb,2018,-104.241,30.545,2018-04-30 12:00:00+00:00,,
EONET_3485,"Wildfire MB-EA015, Manitoba, Canada",2018-05-19 00:00:00+00:00,False,1,MBFIRE,2018,-95.9892,49.2058,2018-04-29 00:00:00+00:00,,
EONET_3483,"Wildfire - SE of Palm Springs, California - United States",2018-04-29 00:00:00+00:00,False,1,PDC,2018,-116.135269774,33.554281465,2018-04-28 19:00:00+00:00,,
EONET_3484,Tinder Fire,2018-06-06 00:00:00+00:00,False,3,EO|InciWeb|PDC,2018,-111.161,34.558,2018-04-27 11:45:00+00:00,,
EONET_3680,Lodgepole Fire,2018-08-15 00:00:00+00:00,False,1,InciWeb,2018,-115.833,44.321,2018-04-24 00:00:00+00:00,,
EONET_3487,OK Bar Fire,2018-05-09 00:00:00+00:00,False,1,InciWeb,2018,-108.715,31.545,2018-04-22 00:00:00+00:00,,
EONET_3478,"Moffat Fire, California",2018-04-30 00:00:00+00:00,False,1,CALFIRE,2018,-118.08449,36.71537,2018-04-19 10:28:00+00:00,,
EONET_3474,Mile Marker 117 Fire,2018-04-20 00:00:00+00:00,False,1,InciWeb,2018,-104.673,38.528,2018-04-17 00:00:00+00:00,,
EONET_3468,Avian Complex Fire,2018-06-01 00:00:00+00:00,False,1,InciWeb,2018,-80.902,26.01,2018-04-16 15:45:00+00:00,,
EONET_3508,Gate Mountain Fire,2018-05-25 00:00:00+00:00,False,1,InciWeb,2018,-79.006,38.62,2018-04-13 17:00:00+00:00,,
EONET_3469,34 Complex Fire,2018-04-25 00:00:00+00:00,False,1,InciWeb,2018,-99.4,36.52,2018-04-12 16:00:00+00:00,,
EONET_3471,Diener Canyon Fire,2018-05-25 00:00:00+00:00,False,1,InciWeb,2018,-108.136,35.191,2018-04-12 16:00:00+00:00,,
EONET_3470,Rhea Fire,2018-04-26 00:00:00+00:00,False,2,InciWeb|PDC,2018,-99.213,35.849,2018-04-12 14:00:00+00:00,,
EONET_3472,Bluewater Fire,2018-05-31 00:00:00+00:00,False,1,InciWeb,2018,-108.133,35.25,2018-04-12 12:00:00+00:00,,
EONET_3473,Rattlesnake Fire,2018-05-07 00:00:00+00:00,False,1,InciWeb,2018,-109.506,33.656,2018-04-11 13:30:00+00:00,,
EONET_3500,Buzzard Fire,2018-06-01 00:00:00+00:00,False,1,InciWeb,2018,-80.995,25.977,2018-04-10 15:45:00+00:00,,
EONET_3464,"Tenerife, Spain Forest Fire",2018-04-12 00:00:00+00:00,False,1,CEMS,2018,-16.55,28.25,2018-04-08 00:00:00+00:00,,
EONET_3546,Ute Park Fire,2018-06-19 00:00:00+00:00,False,2,InciWeb|PDC,2018,-105.056,36.551,2018-05-31 14:15:00+00:00,,
EONET_4040,"Wildfire PWF047-2018 Peace River, Alberta, Canada",2018-11-25 00:00:00+00:00,False,1,ABFIRE,2018,-118.153217,57.035417,2018-05-28 11:39:00+00:00,,
EONET_3542,Horse Park Fire,2018-06-22 00:00:00+00:00,False,1,InciWeb,2018,-108.533,37.928,2018-05-26 00:00:00+00:00,,
EONET_3529,"Wildfire MB-CE065, Manitoba, Canada",2018-05-30 00:00:00+00:00,False,1,MBFIRE,2018,-97.6267,51.2739,2018-05-23 00:00:00+00:00,,
EONET_3531,"Allie Lake Fire, British Columbia, Canada",2018-05-31 00:00:00+00:00,False,1,BCWILDFIRE,2018,-120.8583333,51.1458333,2018-05-23 00:00:00+00:00,,
EONET_3536,"Xusum Creek Fire, British Columbia, Canada",2018-06-06 00:00:00+00:00,False,1,BCWILDFIRE,2018,-122.4352333,50.6363333,2018-05-23 00:00:00+00:00,,
EONET_3528,Buzzard Fire,2018-07-05 00:00:00+00:00,False,1,InciWeb,2018,-108.538,33.724,2018-05-22 15:00:00+00:00,,
EONET_3545,Kellar Fire,2018-06-21 00:00:00+00:00,False,1,InciWeb,2018,-104.679,32.212,2018-05-22 09:45:00+00:00,,
EONET_3535,"Kahta Creek Fire, British Columbia, Canada",2018-05-26 00:00:00+00:00,False,1,BCWILDFIRE,2018,-122.8420029,57.4928322,2018-05-22 00:00:00+00:00,,
EONET_3537,"Beatton River Fire, British Columbia, Canada",2018-06-07 00:00:00+00:00,False,1,BCWILDFIRE,2018,-121.751503,57.1635017,2018-05-22 00:00:00+00:00,,
EONET_3538,"Tommy Lakes Road Fire, British Columbia, Canada",2018-05-25 00:00:00+00:00,False,1,BCWILDFIRE,2018,-121.6196671,57.1071663,2018-05-22 00:00:00+00:00,,
EONET_3522,"Wildfire MB-EA054, Manitoba, Canada",2018-07-04 00:00:00+00:00,False,1,MBFIRE,2018,-95.4042,52.015,2018-05-21 00:00:00+00:00,,
EONET_3526,"Wildfire MB-CE063, Manitoba, Canada",2018-06-02 00:00:00+00:00,False,1,MBFIRE,2018,-98.1814,50.9636,2018-05-21 00:00:00+00:00,,
EONET_3540,"Milligan Hills Fire, British Columbia, Canada",2018-05-27 00:00:00+00:00,False,1,BCWILDFIRE,2018,-120.5511703,57.4691658,2018-05-21 00:00:00+00:00,,
EONET_3519,"Wildfire MB-WE007, Manitoba, Canada",2018-07-17 00:00:00+00:00,False,1,MBFIRE,2018,-100.6717,52.7264,2018-05-20 00:00:00+00:00,,
EONET_3521,"Wildfire MB-CE059, Manitoba, Canada",2018-06-04 00:00:00+00:00,False,1,MBFIRE,2018,-99.2194,51.785,2018-05-20 00:00:00+00:00,,
EONET_3532,"Wildfire MB-WE009, Manitoba, Canada",2018-07-01 00:00:00+00:00,False,1,MBFIRE,2018,-100.6919,52.7292,2018-05-20 00:00:00+00:00,,
EONET_3539,"3 Km SE of Muskwa Fire, British Columbia, Canada",2018-05-26 00:00:00+00:00,False,1,BCWILDFIRE,2018,-123.5451667,58.4553333,2018-05-20 00:00:00+00:00,,
EONET_3524,"Wildfire MB-CE055, Manitoba, Canada",2018-06-02 00:00:00+00:00,False,1,MBFIRE,2018,-98.1667,51.0622,2018-05-19 00:00:00+00:00,,
EONET_3525,"Wildfire MB-CE057, Manitoba, Canada",2018-06-02 00:00:00+00:00,False,1,MBFIRE,2018,-98.2378,51.1592,2018-05-19 00:00:00+00:00,,
EONET_3527,"Wildfire MB-WE005, Manitoba, Canada",2018-07-01 00:00:00+00:00,False,2,EO|MBFIRE,2018,-100.8772,52.7494,2018-05-19 00:00:00+00:00,,
EONET_3530,Wildfires - Western Australia,2018-05-25 00:00:00+00:00,False,1,PDC,2018,119.53773,-20.84817,2018-05-18 00:00:00+00:00,,
EONET_3512,"Patterson Fire, California",2018-05-21 00:00:00+00:00,False,1,CALFIRE,2018,-117.05992,33.62924,2018-05-17 14:19:00+00:00,,
EONET_3513,Happy Fire ,2018-05-24 00:00:00+00:00,False,1,InciWeb,2018,-113.282,34.838,2018-05-15 14:45:00+00:00,,
EONET_3517,"Wildfire MB-CE051, Manitoba, Canada",2018-06-02 00:00:00+00:00,False,1,MBFIRE,2018,-96.8111,50.2544,2018-05-15 00:00:00+00:00,,
EONET_3505,Pinery Fire ,2018-06-05 00:00:00+00:00,False,1,InciWeb,2018,-109.37,31.98,2018-05-12 13:30:00+00:00,,
EONET_3518,"Wildfire MB-CE042, Manitoba, Canada",2018-06-22 00:00:00+00:00,False,1,MBFIRE,2018,-98.335,51.9572,2018-05-12 00:00:00+00:00,,
EONET_3503,Viewpoint Fire ,2018-05-24 00:00:00+00:00,False,1,InciWeb,2018,-112.366,34.688,2018-05-11 13:00:00+00:00,,
EONET_3506,"Wildfire MB-CE029, Manitoba, Canada",2018-05-24 00:00:00+00:00,False,1,MBFIRE,2018,-99.4894,51.8417,2018-05-09 00:00:00+00:00,,
EONET_3502,Mallard Fire,2018-05-25 00:00:00+00:00,False,1,InciWeb,2018,-101.306,34.81,2018-05-08 21:00:00+00:00,,
EONET_3511,"Muddy Lake Road Fire, British Columbia, Canada",2018-05-21 00:00:00+00:00,False,1,BCWILDFIRE,2018,-131.0374908,58.0783653,2018-05-06 00:00:00+00:00,,
EONET_3501,"Wildfire MB-CE016, Manitoba, Canada",2018-05-29 00:00:00+00:00,False,1,MBFIRE,2018,-98.8772,51.7136,2018-05-04 00:00:00+00:00,,
EONET_3497,Tye River Fire,2018-05-25 00:00:00+00:00,False,1,InciWeb,2018,-79.183,37.894,2018-05-03 18:16:00+00:00,,
EONET_3489,"Nees Fire, California",2018-05-11 00:00:00+00:00,False,1,CALFIRE,2018,-120.77206,36.85156,2018-05-02 16:00:00+00:00,,
